var coords = {
  "0100001": {
    "name":"Fort Rucker School District KG",
    "lat":31.405967,
    "lng":-85.744807
  },
  "0100003": {
    "name":"Maxwell AFB School District KG",
    "lat":32.38244,
    "lng":-86.363389
  },
  "0100005": {
    "name":"Albertville City School District KG",
    "lat":34.26313,
    "lng":-86.21066
  },
  "0100006": {
    "name":"Marshall County School District KG",
    "lat":34.369332,
    "lng":-86.341829
  },
  "0100007": {
    "name":"Hoover City School District KG",
    "lat":33.376949,
    "lng":-86.805579
  },
  "0100008": {
    "name":"Madison City School District KG",
    "lat":34.710533,
    "lng":-86.76228
  },
  "0100011": {
    "name":"Leeds City School District KG",
    "lat":33.541333,
    "lng":-86.562058
  },
  "0100012": {
    "name":"Boaz City School District KG",
    "lat":34.19902,
    "lng":-86.155151
  },
  "0100013": {
    "name":"Trussville City School District KG",
    "lat":33.637959,
    "lng":-86.584047
  },
  "0100030": {
    "name":"Alexander City City School District KG",
    "lat":32.869022,
    "lng":-85.951083
  },
  "0100060": {
    "name":"Andalusia City School District KG",
    "lat":31.309436,
    "lng":-86.478031
  },
  "0100090": {
    "name":"Anniston City School District KG",
    "lat":33.67344,
    "lng":-85.810918
  },
  "0100100": {
    "name":"Arab City School District KG",
    "lat":34.330328,
    "lng":-86.500771
  },
  "0100120": {
    "name":"Athens City School District KG",
    "lat":34.778334,
    "lng":-86.949534
  },
  "0100180": {
    "name":"Attalla City School District KG",
    "lat":33.986189,
    "lng":-86.121037
  },
  "0100185": {
    "name":"Saraland City School District PK",
    "lat":30.831585,
    "lng":-88.094117
  },
  "0100210": {
    "name":"Auburn City School District KG",
    "lat":32.607722,
    "lng":-85.489545
  },
  "0100240": {
    "name":"Autauga County School District KG",
    "lat":32.536382,
    "lng":-86.64449
  },
  "0100270": {
    "name":"Baldwin County School District KG",
    "lat":30.659218,
    "lng":-87.746067
  },
  "0100300": {
    "name":"Barbour County School District KG",
    "lat":31.87067,
    "lng":-85.405456
  },
  "0100330": {
    "name":"Bessemer City School District KG",
    "lat":33.370824,
    "lng":-86.971504
  },
  "0100360": {
    "name":"Bibb County School District KG",
    "lat":33.015893,
    "lng":-87.127148
  },
  "0100390": {
    "name":"Birmingham City School District KG",
    "lat":33.527444,
    "lng":-86.799047
  },
  "0100420": {
    "name":"Blount County School District KG",
    "lat":33.979338,
    "lng":-86.570938
  },
  "0100450": {
    "name":"Brewton City School District KG",
    "lat":31.109175,
    "lng":-87.076583
  },
  "0100480": {
    "name":"Bullock County School District KG",
    "lat":32.101759,
    "lng":-85.717261
  },
  "0100510": {
    "name":"Butler County School District KG",
    "lat":31.751667,
    "lng":-86.681969
  },
  "0100540": {
    "name":"Calhoun County School District KG",
    "lat":33.779208,
    "lng":-85.842799
  },
  "0100600": {
    "name":"Chambers County School District KG",
    "lat":32.917943,
    "lng":-85.391812
  },
  "0100630": {
    "name":"Cherokee County School District KG",
    "lat":34.176127,
    "lng":-85.618196
  },
  "0100660": {
    "name":"Chilton County School District KG",
    "lat":32.854059,
    "lng":-86.726627
  },
  "0100690": {
    "name":"Choctaw County School District KG",
    "lat":31.991008,
    "lng":-88.248887
  },
  "0100720": {
    "name":"Clarke County School District KG",
    "lat":31.66494,
    "lng":-87.828087
  },
  "0100750": {
    "name":"Clay County School District KG",
    "lat":33.267809,
    "lng":-85.862051
  },
  "0100780": {
    "name":"Cleburne County School District KG",
    "lat":33.651152,
    "lng":-85.524151
  },
  "0100810": {
    "name":"Coffee County School District KG",
    "lat":31.394989,
    "lng":-85.9863
  },
  "0100840": {
    "name":"Colbert County School District KG",
    "lat":34.704012,
    "lng":-87.813037
  },
  "0100870": {
    "name":"Conecuh County School District KG",
    "lat":31.428292,
    "lng":-86.992029
  },
  "0100900": {
    "name":"Coosa County School District KG",
    "lat":32.931445,
    "lng":-86.243482
  },
  "0100930": {
    "name":"Covington County School District KG",
    "lat":31.245364,
    "lng":-86.455382
  },
  "0100960": {
    "name":"Crenshaw County School District KG",
    "lat":31.732826,
    "lng":-86.319222
  },
  "0100990": {
    "name":"Cullman City School District KG",
    "lat":34.178892,
    "lng":-86.841887
  },
  "0101020": {
    "name":"Cullman County School District KG",
    "lat":34.131923,
    "lng":-86.869267
  },
  "0101050": {
    "name":"Dale County School District KG",
    "lat":31.492383,
    "lng":-85.563276
  },
  "0101080": {
    "name":"Daleville City School District KG",
    "lat":31.266701,
    "lng":-85.738765
  },
  "0101110": {
    "name":"Dallas County School District KG",
    "lat":32.33354,
    "lng":-87.114356
  },
  "0101140": {
    "name":"DeKalb County School District KG",
    "lat":34.463314,
    "lng":-85.812056
  },
  "0101170": {
    "name":"Decatur City School District KG",
    "lat":34.573039,
    "lng":-86.991684
  },
  "0101200": {
    "name":"Demopolis City School District KG",
    "lat":32.499435,
    "lng":-87.825006
  },
  "0101230": {
    "name":"Dothan City School District KG",
    "lat":31.233698,
    "lng":-85.406823
  },
  "0101260": {
    "name":"Elba City School District KG",
    "lat":31.429429,
    "lng":-86.107848
  },
  "0101290": {
    "name":"Elmore County School District KG",
    "lat":32.602759,
    "lng":-86.185308
  },
  "0101320": {
    "name":"Enterprise City School District KG",
    "lat":31.328476,
    "lng":-85.844323
  },
  "0101350": {
    "name":"Escambia County School District KG",
    "lat":31.121747,
    "lng":-87.168429
  },
  "0101380": {
    "name":"Etowah County School District KG",
    "lat":34.11593,
    "lng":-85.896072
  },
  "0101410": {
    "name":"Eufaula City School District KG",
    "lat":31.910041,
    "lng":-85.152556
  },
  "0101440": {
    "name":"Fairfield City School District KG",
    "lat":33.474715,
    "lng":-86.919339
  },
  "0101470": {
    "name":"Fayette County School District KG",
    "lat":33.708924,
    "lng":-87.740978
  },
  "0101530": {
    "name":"Florence City School District KG",
    "lat":34.830349,
    "lng":-87.666096
  },
  "0101560": {
    "name":"Fort Payne City School District KG",
    "lat":34.454993,
    "lng":-85.695309
  },
  "0101590": {
    "name":"Franklin County School District KG",
    "lat":34.441988,
    "lng":-87.842815
  },
  "0101620": {
    "name":"Gadsden City School District KG",
    "lat":34.009563,
    "lng":-86.015643
  },
  "0101640": {
    "name":"Geneva City School District KG",
    "lat":31.045213,
    "lng":-85.880053
  },
  "0101660": {
    "name":"Geneva County School District KG",
    "lat":31.146772,
    "lng":-85.662957
  },
  "0101680": {
    "name":"Greene County School District KG",
    "lat":32.844497,
    "lng":-87.9642
  },
  "0101690": {
    "name":"Guntersville City School District KG",
    "lat":34.368849,
    "lng":-86.252323
  },
  "0101710": {
    "name":"Hale County School District KG",
    "lat":32.752796,
    "lng":-87.623061
  },
  "0101720": {
    "name":"Haleyville City School District KG",
    "lat":34.211028,
    "lng":-87.577669
  },
  "0101730": {
    "name":"Hartselle City School District KG",
    "lat":34.438308,
    "lng":-86.941142
  },
  "0101740": {
    "name":"Henry County School District KG",
    "lat":31.516978,
    "lng":-85.239971
  },
  "0101760": {
    "name":"Homewood City School District KG",
    "lat":33.459024,
    "lng":-86.809414
  },
  "0101770": {
    "name":"Houston County School District KG",
    "lat":31.132817,
    "lng":-85.281543
  },
  "0101800": {
    "name":"Huntsville City School District KG",
    "lat":34.684909,
    "lng":-86.605697
  },
  "0101830": {
    "name":"Jackson County School District KG",
    "lat":34.763522,
    "lng":-85.9774
  },
  "0101860": {
    "name":"Jacksonville City School District KG",
    "lat":33.806214,
    "lng":-85.758288
  },
  "0101890": {
    "name":"Jasper City School District KG",
    "lat":33.854951,
    "lng":-87.27074
  },
  "0101920": {
    "name":"Jefferson County School District KG",
    "lat":33.576195,
    "lng":-86.938008
  },
  "0101950": {
    "name":"Lamar County School District KG",
    "lat":33.787085,
    "lng":-88.087431
  },
  "0101980": {
    "name":"Lanett City School District KG",
    "lat":32.857871,
    "lng":-85.207739
  },
  "0102010": {
    "name":"Lauderdale County School District KG",
    "lat":34.904122,
    "lng":-87.650997
  },
  "0102040": {
    "name":"Lawrence County School District KG",
    "lat":34.529776,
    "lng":-87.321865
  },
  "0102070": {
    "name":"Lee County School District KG",
    "lat":32.581051,
    "lng":-85.350306
  },
  "0102100": {
    "name":"Limestone County School District KG",
    "lat":34.770706,
    "lng":-87.032742
  },
  "0102130": {
    "name":"Linden City School District KG",
    "lat":32.301901,
    "lng":-87.833754
  },
  "0102160": {
    "name":"Lowndes County School District KG",
    "lat":32.147888,
    "lng":-86.650586
  },
  "0102190": {
    "name":"Macon County School District KG",
    "lat":32.387027,
    "lng":-85.692887
  },
  "0102220": {
    "name":"Madison County School District KG",
    "lat":34.795664,
    "lng":-86.522158
  },
  "0102250": {
    "name":"Marengo County School District KG",
    "lat":32.127617,
    "lng":-87.629114
  },
  "0102310": {
    "name":"Marion County School District KG",
    "lat":34.146544,
    "lng":-87.889416
  },
  "0102350": {
    "name":"Midfield City School District KG",
    "lat":33.455197,
    "lng":-86.922633
  },
  "0102370": {
    "name":"Mobile County School District KG",
    "lat":30.682863,
    "lng":-88.198154
  },
  "0102400": {
    "name":"Monroe County School District KG",
    "lat":31.580332,
    "lng":-87.383266
  },
  "0102430": {
    "name":"Montgomery County School District KG",
    "lat":32.20365,
    "lng":-86.203831
  },
  "0102480": {
    "name":"Morgan County School District KG",
    "lat":34.441072,
    "lng":-86.833188
  },
  "0102490": {
    "name":"Mountain Brook City School District KG",
    "lat":33.491488,
    "lng":-86.73447
  },
  "0102520": {
    "name":"Muscle Shoals City School District KG",
    "lat":34.74317,
    "lng":-87.633761
  },
  "0102550": {
    "name":"Oneonta City School District KG",
    "lat":33.946774,
    "lng":-86.490517
  },
  "0102580": {
    "name":"Opelika City School District KG",
    "lat":32.660739,
    "lng":-85.37889
  },
  "0102610": {
    "name":"Opp City School District KG",
    "lat":31.284375,
    "lng":-86.257442
  },
  "0102635": {
    "name":"Oxford City School District KG",
    "lat":33.590431,
    "lng":-85.852433
  },
  "0102640": {
    "name":"Ozark City School District KG",
    "lat":31.44347,
    "lng":-85.641292
  },
  "0102650": {
    "name":"Pell City City School District KG",
    "lat":33.551071,
    "lng":-86.319249
  },
  "0102670": {
    "name":"Perry County School District KG",
    "lat":32.639005,
    "lng":-87.293827
  },
  "0102700": {
    "name":"Phenix City City School District KG",
    "lat":32.461669,
    "lng":-85.025021
  },
  "0102730": {
    "name":"Pickens County School District KG",
    "lat":33.296808,
    "lng":-88.096878
  },
  "0102760": {
    "name":"Piedmont City School District KG",
    "lat":33.918005,
    "lng":-85.513815
  },
  "0102790": {
    "name":"Pike County School District KG",
    "lat":31.727205,
    "lng":-85.793191
  },
  "0102820": {
    "name":"Randolph County School District KG",
    "lat":33.296475,
    "lng":-85.464068
  },
  "0102850": {
    "name":"Roanoke City School District KG",
    "lat":33.145305,
    "lng":-85.369526
  },
  "0102880": {
    "name":"Russell County School District KG",
    "lat":32.273253,
    "lng":-85.181598
  },
  "0102910": {
    "name":"Russellville City School District KG",
    "lat":34.505737,
    "lng":-87.728192
  },
  "0102940": {
    "name":"Scottsboro City School District KG",
    "lat":34.644641,
    "lng":-86.048205
  },
  "0102970": {
    "name":"Selma City School District KG",
    "lat":32.416985,
    "lng":-87.03471
  },
  "0103000": {
    "name":"Sheffield City School District KG",
    "lat":34.755494,
    "lng":-87.701265
  },
  "0103030": {
    "name":"Shelby County School District KG",
    "lat":33.258247,
    "lng":-86.660584
  },
  "0103062": {
    "name":"St. Clair County School District KG",
    "lat":33.769999,
    "lng":-86.317984
  },
  "0103090": {
    "name":"Sumter County School District KG",
    "lat":32.597481,
    "lng":-88.200057
  },
  "0103120": {
    "name":"Sylacauga City School District KG",
    "lat":33.177585,
    "lng":-86.260105
  },
  "0103150": {
    "name":"Talladega City School District KG",
    "lat":33.430539,
    "lng":-86.098251
  },
  "0103180": {
    "name":"Talladega County School District KG",
    "lat":33.369277,
    "lng":-86.175805
  },
  "0103210": {
    "name":"Tallapoosa County School District KG",
    "lat":32.858648,
    "lng":-85.770675
  },
  "0103240": {
    "name":"Tallassee City School District KG",
    "lat":32.551039,
    "lng":-85.946354
  },
  "0103270": {
    "name":"Tarrant City School District KG",
    "lat":33.595267,
    "lng":-86.766253
  },
  "0103300": {
    "name":"Thomasville City School District KG",
    "lat":31.906564,
    "lng":-87.735112
  },
  "0103330": {
    "name":"Troy City School District KG",
    "lat":31.802066,
    "lng":-85.964912
  },
  "0103360": {
    "name":"Tuscaloosa City School District KG",
    "lat":33.233122,
    "lng":-87.528493
  },
  "0103390": {
    "name":"Tuscaloosa County School District KG",
    "lat":33.292128,
    "lng":-87.524886
  },
  "0103420": {
    "name":"Tuscumbia City School District KG",
    "lat":34.718686,
    "lng":-87.702603
  },
  "0103430": {
    "name":"Vestavia Hills City School District KG",
    "lat":33.462496,
    "lng":-86.739508
  },
  "0103450": {
    "name":"Walker County School District KG",
    "lat":33.791571,
    "lng":-87.301092
  },
  "0103480": {
    "name":"Washington County School District KG",
    "lat":31.406974,
    "lng":-88.202078
  },
  "0103510": {
    "name":"Wilcox County School District KG",
    "lat":31.99033,
    "lng":-87.302205
  },
  "0103540": {
    "name":"Winfield City School District KG",
    "lat":33.919533,
    "lng":-87.809033
  },
  "0103580": {
    "name":"Winston County School District KG",
    "lat":34.147927,
    "lng":-87.334155
  },
  "0200001": {
    "name":"Lower Kuskokwim School District PK",
    "lat":60.405729,
    "lng":-163.134361
  },
  "0200003": {
    "name":"Lower Yukon School District PK",
    "lat":62.283174,
    "lng":-163.19095
  },
  "0200004": {
    "name":"Yupiit School District KG",
    "lat":60.906407,
    "lng":-161.399862
  },
  "0200005": {
    "name":"Kashunamiut School District KG",
    "lat":61.530883,
    "lng":-165.597175
  },
  "0200007": {
    "name":"Aleutians East Borough School District PK",
    "lat":55.243722,
    "lng":-161.950749
  },
  "0200010": {
    "name":"Aleutian Region School District KG",
    "lat":51.959447,
    "lng":178.338813
  },
  "0200020": {
    "name":"Bering Strait School District PK",
    "lat":64.783686,
    "lng":-164.188912
  },
  "0200030": {
    "name":"Bristol Bay Borough School District PK",
    "lat":58.731372,
    "lng":-156.986612
  },
  "0200050": {
    "name":"Alaska Gateway School District PK",
    "lat":63.664735,
    "lng":-142.46626
  },
  "0200060": {
    "name":"Cordova City School District PK",
    "lat":60.530138,
    "lng":-145.642065
  },
  "0200070": {
    "name":"Copper River School District PK",
    "lat":61.795301,
    "lng":-144.134037
  },
  "0200090": {
    "name":"Craig City School District KG",
    "lat":55.49252,
    "lng":-133.11336
  },
  "0200100": {
    "name":"Delta/Greely School District PK",
    "lat":63.822003,
    "lng":-145.698579
  },
  "0200120": {
    "name":"Dillingham City School District PK",
    "lat":59.054951,
    "lng":-158.540657
  },
  "0200130": {
    "name":"Galena City School District PK",
    "lat":64.739952,
    "lng":-156.873969
  },
  "0200150": {
    "name":"Ketchikan Gateway Borough School District PK",
    "lat":55.449938,
    "lng":-131.106685
  },
  "0200180": {
    "name":"Anchorage School District PK",
    "lat":61.177549,
    "lng":-149.274354
  },
  "0200210": {
    "name":"Juneau Borough School District PK",
    "lat":58.3727,
    "lng":-134.178781
  },
  "0200240": {
    "name":"Sitka Borough School District PK",
    "lat":57.142508,
    "lng":-135.332624
  },
  "0200270": {
    "name":"Haines Borough School District KG",
    "lat":59.099905,
    "lng":-135.578102
  },
  "0200300": {
    "name":"Hoonah City School District KG",
    "lat":58.11082,
    "lng":-135.425471
  },
  "0200330": {
    "name":"Hydaburg City School District KG",
    "lat":55.20412,
    "lng":-132.818341
  },
  "0200360": {
    "name":"Kake City School District KG",
    "lat":56.977698,
    "lng":-133.904393
  },
  "0200390": {
    "name":"Kenai Peninsula Borough School District PK",
    "lat":59.990785,
    "lng":-151.72079
  },
  "0200450": {
    "name":"Klawock City School District KG",
    "lat":55.556339,
    "lng":-133.087741
  },
  "0200480": {
    "name":"Kodiak Island Borough School District PK",
    "lat":57.553611,
    "lng":-153.630911
  },
  "0200485": {
    "name":"Lake And Peninsula School District PK",
    "lat":58.205065,
    "lng":-156.705188
  },
  "0200510": {
    "name":"Matanuska-Susitna Borough School District PK",
    "lat":62.182174,
    "lng":-149.407974
  },
  "0200520": {
    "name":"Iditarod Area School District PK",
    "lat":62.704548,
    "lng":-156.155269
  },
  "0200525": {
    "name":"Annette Island School District PK",
    "lat":55.138069,
    "lng":-131.470741
  },
  "0200540": {
    "name":"Nenana City School District PK",
    "lat":64.537903,
    "lng":-149.071851
  },
  "0200570": {
    "name":"Nome School District KG",
    "lat":64.505736,
    "lng":-165.415307
  },
  "0200600": {
    "name":"Fairbanks North Star Borough School District PK",
    "lat":64.690832,
    "lng":-146.599867
  },
  "0200610": {
    "name":"North Slope Borough School District PK",
    "lat":69.449343,
    "lng":-153.47283
  },
  "0200625": {
    "name":"Northwest Arctic Borough School District PK",
    "lat":67.005066,
    "lng":-160.021086
  },
  "0200630": {
    "name":"Pelican City School District PK",
    "lat":57.9598,
    "lng":-136.216753
  },
  "0200660": {
    "name":"Petersburg City School District KG",
    "lat":56.763209,
    "lng":-132.87574
  },
  "0200670": {
    "name":"Pribilof School District KG",
    "lat":57.049508,
    "lng":-170.406225
  },
  "0200680": {
    "name":"St. Marys City School District PK",
    "lat":62.065286,
    "lng":-163.249479
  },
  "0200690": {
    "name":"Skagway School District KG",
    "lat":59.575097,
    "lng":-135.335418
  },
  "0200700": {
    "name":"Southeast Island School District KG",
    "lat":55.871941,
    "lng":-133.18277
  },
  "0200710": {
    "name":"Southwest Region School District KG",
    "lat":59.824816,
    "lng":-158.602233
  },
  "0200715": {
    "name":"Tanana School District KG",
    "lat":65.184555,
    "lng":-152.054643
  },
  "0200720": {
    "name":"Unalaska City School District PK",
    "lat":53.913312,
    "lng":-166.52508
  },
  "0200730": {
    "name":"Chatham School District KG",
    "lat":58.018575,
    "lng":-135.018787
  },
  "0200760": {
    "name":"Kuspuk School District PK",
    "lat":61.523552,
    "lng":-158.036092
  },
  "0200770": {
    "name":"Denali Borough School District KG",
    "lat":63.682732,
    "lng":-150.026719
  },
  "0200775": {
    "name":"Yukon Flats School District PK",
    "lat":66.719685,
    "lng":-145.258769
  },
  "0200780": {
    "name":"Valdez City School District PK",
    "lat":61.083367,
    "lng":-146.320284
  },
  "0200800": {
    "name":"Chugach School District PK",
    "lat":60.488474,
    "lng":-146.203092
  },
  "0200810": {
    "name":"Wrangell City School District KG",
    "lat":56.279121,
    "lng":-132.040325
  },
  "0200840": {
    "name":"Yakutat City School District KG",
    "lat":59.999083,
    "lng":-140.239593
  },
  "0200862": {
    "name":"Yukon-Koyukuk School District PK",
    "lat":65.634478,
    "lng":-154.325196
  },
  "0400001": {
    "name":"Cave Creek Unified District PK",
    "lat":33.768229,
    "lng":-111.858841
  },
  "0400003": {
    "name":"Chino Valley Unified District PK",
    "lat":34.862353,
    "lng":-112.457635
  },
  "0400021": {
    "name":"Colorado City Unified District PK",
    "lat":36.687258,
    "lng":-113.115693
  },
  "0400023": {
    "name":"Pinon Unified District PK",
    "lat":36.13233,
    "lng":-110.349847
  },
  "0400026": {
    "name":"Heber-Overgaard Unified District PK",
    "lat":34.493814,
    "lng":-110.549051
  },
  "0400212": {
    "name":"Benson Unified School District PK",
    "lat":32.15457,
    "lng":-110.232319
  },
  "0400295": {
    "name":"Kingman Unified School District PK",
    "lat":35.609337,
    "lng":-114.175385
  },
  "0400520": {
    "name":"Ajo Unified District PK",
    "lat":32.418351,
    "lng":-112.821419
  },
  "0400680": {
    "name":"Amphitheater Unified District PK",
    "lat":32.412977,
    "lng":-110.963599
  },
  "0400790": {
    "name":"Apache Junction Unified District PK",
    "lat":33.38536,
    "lng":-111.420719
  },
  "0400910": {
    "name":"Ash Fork Joint Unified District PK",
    "lat":35.160033,
    "lng":-112.551179
  },
  "0401000": {
    "name":"Bagdad Unified School District PK",
    "lat":34.573384,
    "lng":-113.14388
  },
  "0401180": {
    "name":"Bisbee Unified District PK",
    "lat":31.472333,
    "lng":-109.830116
  },
  "0401330": {
    "name":"Bowie Unified District PK",
    "lat":32.284581,
    "lng":-109.493466
  },
  "0401460": {
    "name":"Sierra Vista Unified District PK",
    "lat":31.532984,
    "lng":-110.219356
  },
  "0401600": {
    "name":"Camp Verde Unified District PK",
    "lat":34.486956,
    "lng":-111.785347
  },
  "0401760": {
    "name":"Catalina Foothills Unified District PK",
    "lat":32.315499,
    "lng":-110.884371
  },
  "0401810": {
    "name":"Cedar Unified District PK",
    "lat":35.764591,
    "lng":-110.400336
  },
  "0401870": {
    "name":"Chandler Unified District PK",
    "lat":33.258561,
    "lng":-111.809977
  },
  "0401940": {
    "name":"Chinle Unified District PK",
    "lat":36.156387,
    "lng":-109.528703
  },
  "0402110": {
    "name":"Clifton Unified District PK",
    "lat":33.111974,
    "lng":-109.228122
  },
  "0402320": {
    "name":"Coolidge Unified District PK",
    "lat":33.038936,
    "lng":-111.597717
  },
  "0402530": {
    "name":"Douglas Unified District PK",
    "lat":31.427662,
    "lng":-109.271823
  },
  "0402600": {
    "name":"Duncan Unified District PK",
    "lat":32.750987,
    "lng":-109.196646
  },
  "0402690": {
    "name":"Dysart Unified District PK",
    "lat":33.628408,
    "lng":-112.416104
  },
  "0402860": {
    "name":"Flagstaff Unified District PK",
    "lat":35.156769,
    "lng":-111.347621
  },
  "0402920": {
    "name":"Florence Unified School District PK",
    "lat":32.943719,
    "lng":-111.222332
  },
  "0403010": {
    "name":"Flowing Wells Unified District PK",
    "lat":32.296064,
    "lng":-111.025859
  },
  "0403040": {
    "name":"Fountain Hills Unified District PK",
    "lat":33.607452,
    "lng":-111.722236
  },
  "0403080": {
    "name":"Fredonia-Moccasin Unified District PK",
    "lat":36.618033,
    "lng":-112.299742
  },
  "0403150": {
    "name":"Fort Huachuca Accommodation District PK",
    "lat":31.567296,
    "lng":-110.330229
  },
  "0403200": {
    "name":"Fort Thomas Unified District PK",
    "lat":33.211178,
    "lng":-110.108648
  },
  "0403290": {
    "name":"Ganado Unified District PK",
    "lat":35.667345,
    "lng":-109.605694
  },
  "0403310": {
    "name":"Gila Bend Unified District PK",
    "lat":32.801854,
    "lng":-112.758442
  },
  "0403400": {
    "name":"Gilbert Unified District PK",
    "lat":33.348049,
    "lng":-111.726983
  },
  "0403500": {
    "name":"Globe Unified District PK",
    "lat":33.467381,
    "lng":-110.784864
  },
  "0403550": {
    "name":"Grand Canyon Unified District PK",
    "lat":35.977149,
    "lng":-112.103574
  },
  "0403730": {
    "name":"Hayden-Winkelman Unified District PK",
    "lat":33.187328,
    "lng":-110.777524
  },
  "0403780": {
    "name":"Higley Unified District PK",
    "lat":33.289825,
    "lng":-111.705583
  },
  "0403820": {
    "name":"Holbrook Unified District PK",
    "lat":35.151498,
    "lng":-110.06852
  },
  "0403870": {
    "name":"Humboldt Unified District PK",
    "lat":34.579915,
    "lng":-112.173644
  },
  "0403950": {
    "name":"Indian Oasis-Baboquivari Unified District PK",
    "lat":32.083381,
    "lng":-112.066956
  },
  "0403990": {
    "name":"J. O. Combs Unified School District KG",
    "lat":33.249652,
    "lng":-111.484873
  },
  "0404010": {
    "name":"Joseph City Unified District PK",
    "lat":35.07961,
    "lng":-110.283924
  },
  "0404060": {
    "name":"Kayenta Unified District PK",
    "lat":36.621244,
    "lng":-110.425764
  },
  "0404280": {
    "name":"Lake Havasu Unified District PK",
    "lat":34.544937,
    "lng":-114.302071
  },
  "0404410": {
    "name":"Littlefield Unified District PK",
    "lat":36.442474,
    "lng":-113.618156
  },
  "0404570": {
    "name":"Mammoth-San Manuel Unified District PK",
    "lat":32.655329,
    "lng":-110.57599
  },
  "0404630": {
    "name":"Marana Unified District PK",
    "lat":32.374466,
    "lng":-111.290862
  },
  "0404720": {
    "name":"Maricopa Unified School District PK",
    "lat":33.03408,
    "lng":-112.084635
  },
  "0404820": {
    "name":"Mayer Unified District PK",
    "lat":34.219718,
    "lng":-111.925413
  },
  "0404970": {
    "name":"Mesa Unified District PK",
    "lat":33.454456,
    "lng":-111.723669
  },
  "0405030": {
    "name":"Miami Unified District PK",
    "lat":33.518824,
    "lng":-110.958149
  },
  "0405320": {
    "name":"Morenci Unified District PK",
    "lat":33.12738,
    "lng":-109.425043
  },
  "0405460": {
    "name":"Nadaburg Unified School District PK",
    "lat":33.789226,
    "lng":-112.48528
  },
  "0405530": {
    "name":"Nogales Unified District PK",
    "lat":31.406349,
    "lng":-111.118326
  },
  "0405820": {
    "name":"Page Unified District PK",
    "lat":36.709466,
    "lng":-111.27337
  },
  "0405930": {
    "name":"Paradise Valley Unified District PK",
    "lat":33.653451,
    "lng":-111.979982
  },
  "0405980": {
    "name":"Parker Unified School District PK",
    "lat":34.142777,
    "lng":-113.853251
  },
  "0406070": {
    "name":"Payson Unified District PK",
    "lat":34.230829,
    "lng":-111.26848
  },
  "0406120": {
    "name":"Peach Springs Unified District PK",
    "lat":35.478699,
    "lng":-113.444013
  },
  "0406250": {
    "name":"Peoria Unified School District PK",
    "lat":33.724646,
    "lng":-112.293646
  },
  "0406440": {
    "name":"Pima Unified District PK",
    "lat":33.069963,
    "lng":-109.84988
  },
  "0406580": {
    "name":"Blue Ridge Unified District PK",
    "lat":34.158983,
    "lng":-109.92723
  },
  "0406730": {
    "name":"Prescott Unified District PK",
    "lat":34.562693,
    "lng":-112.483749
  },
  "0406740": {
    "name":"Sanders Unified District PK",
    "lat":35.184302,
    "lng":-109.448204
  },
  "0406810": {
    "name":"Queen Creek Unified District PK",
    "lat":33.270168,
    "lng":-111.630229
  },
  "0406850": {
    "name":"Ray Unified District PK",
    "lat":32.973098,
    "lng":-110.729262
  },
  "0406870": {
    "name":"Red Mesa Unified District PK",
    "lat":36.726642,
    "lng":-109.532665
  },
  "0406960": {
    "name":"San Carlos Unified District PK",
    "lat":33.576877,
    "lng":-110.449806
  },
  "0407130": {
    "name":"Round Valley Unified District PK",
    "lat":33.992899,
    "lng":-109.445983
  },
  "0407170": {
    "name":"Saddle Mountain Unified School District KG",
    "lat":33.55018,
    "lng":-112.861741
  },
  "0407240": {
    "name":"Safford Unified District PK",
    "lat":33.058327,
    "lng":-109.684363
  },
  "0407300": {
    "name":"Sahuarita Unified District PK",
    "lat":31.816053,
    "lng":-111.107553
  },
  "0407430": {
    "name":"San Simon Unified District PK",
    "lat":32.146221,
    "lng":-109.201409
  },
  "0407520": {
    "name":"Santa Cruz Valley Unified District PK",
    "lat":31.5662,
    "lng":-111.058985
  },
  "0407570": {
    "name":"Scottsdale Unified District PK",
    "lat":33.581629,
    "lng":-111.886755
  },
  "0407630": {
    "name":"Seligman Unified District PK",
    "lat":35.179962,
    "lng":-113.094381
  },
  "0407700": {
    "name":"Show Low Unified District PK",
    "lat":34.315141,
    "lng":-110.137387
  },
  "0407750": {
    "name":"Deer Valley Unified District PK",
    "lat":33.838538,
    "lng":-112.128303
  },
  "0407820": {
    "name":"Snowflake Unified District PK",
    "lat":34.539341,
    "lng":-110.150385
  },
  "0408020": {
    "name":"St. David Unified District PK",
    "lat":31.84599,
    "lng":-110.253507
  },
  "0408080": {
    "name":"St. Johns Unified District PK",
    "lat":34.679232,
    "lng":-109.402658
  },
  "0408170": {
    "name":"Sunnyside Unified District PK",
    "lat":32.097982,
    "lng":-110.975316
  },
  "0408230": {
    "name":"Superior Unified School District KG",
    "lat":33.339279,
    "lng":-111.115898
  },
  "0408280": {
    "name":"Tanque Verde Unified District PK",
    "lat":32.251657,
    "lng":-110.707601
  },
  "0408410": {
    "name":"Thatcher Unified District PK",
    "lat":32.687109,
    "lng":-109.786124
  },
  "0408600": {
    "name":"Tombstone Unified District PK",
    "lat":31.707062,
    "lng":-110.060596
  },
  "0408680": {
    "name":"Tuba City Unified District PK",
    "lat":36.061797,
    "lng":-111.207856
  },
  "0408800": {
    "name":"Tucson Unified District PK",
    "lat":32.211413,
    "lng":-110.962766
  },
  "0408850": {
    "name":"Vail Unified District PK",
    "lat":32.01553,
    "lng":-110.687344
  },
  "0409160": {
    "name":"Whiteriver Unified District PK",
    "lat":34.105696,
    "lng":-110.27213
  },
  "0409190": {
    "name":"Wickenburg Unified District PK",
    "lat":33.854668,
    "lng":-112.807032
  },
  "0409250": {
    "name":"Willcox Unified District PK",
    "lat":32.200376,
    "lng":-109.801687
  },
  "0409310": {
    "name":"Williams Unified District PK",
    "lat":35.579161,
    "lng":-112.471489
  },
  "0409430": {
    "name":"Window Rock Unified District PK",
    "lat":35.653353,
    "lng":-109.165118
  },
  "0409460": {
    "name":"Winslow Unified District PK",
    "lat":35.101708,
    "lng":-110.613814
  },
  "0409733": {
    "name":"Sedona-Oak Creek Joint Unified District PK",
    "lat":34.823728,
    "lng":-111.803187
  },
  "0499997": {
    "name":"School District Not Defined PK",
    "lat":32.591188,
    "lng":-112.274162
  },
  "0500001": {
    "name":"DeWitt School District PK",
    "lat":34.2474,
    "lng":-91.374543
  },
  "0500006": {
    "name":"Warren School District PK",
    "lat":33.612702,
    "lng":-92.127702
  },
  "0500007": {
    "name":"Eudora Public Schools PK",
    "lat":33.132074,
    "lng":-91.274082
  },
  "0500009": {
    "name":"Corning Public Schools PK",
    "lat":36.371011,
    "lng":-90.612724
  },
  "0500012": {
    "name":"Riverside School District PK",
    "lat":35.72995,
    "lng":-90.413243
  },
  "0500015": {
    "name":"Sheridan School District PK",
    "lat":34.304271,
    "lng":-92.3974
  },
  "0500016": {
    "name":"Marmaduke School District PK",
    "lat":36.201107,
    "lng":-90.420462
  },
  "0500017": {
    "name":"Paragould School District PK",
    "lat":36.107829,
    "lng":-90.586618
  },
  "0500019": {
    "name":"Batesville School District PK",
    "lat":35.79895,
    "lng":-91.69814
  },
  "0500020": {
    "name":"Midland School District PK",
    "lat":35.584244,
    "lng":-91.6551
  },
  "0500021": {
    "name":"Izard Cty Consolidated Schools PK",
    "lat":36.1889,
    "lng":-91.854479
  },
  "0500023": {
    "name":"Newport School District PK",
    "lat":35.51162,
    "lng":-91.206552
  },
  "0500026": {
    "name":"Pine Bluff School District PK",
    "lat":34.163604,
    "lng":-91.898629
  },
  "0500028": {
    "name":"Star City School District PK",
    "lat":33.968435,
    "lng":-91.808355
  },
  "0500029": {
    "name":"Gosnell School District PK",
    "lat":35.912769,
    "lng":-90.046776
  },
  "0500030": {
    "name":"Nevada School District PK",
    "lat":33.581632,
    "lng":-93.300309
  },
  "0500032": {
    "name":"Bearden School District PK",
    "lat":33.736493,
    "lng":-92.562102
  },
  "0500041": {
    "name":"Western Yell County School District PK",
    "lat":35.112867,
    "lng":-93.523997
  },
  "0500042": {
    "name":"Hamburg School District PK",
    "lat":33.205152,
    "lng":-91.702836
  },
  "0500043": {
    "name":"Mountain Home School District PK",
    "lat":36.389685,
    "lng":-92.388564
  },
  "0500044": {
    "name":"Magnolia School District PK",
    "lat":33.239398,
    "lng":-93.197849
  },
  "0500045": {
    "name":"South Mississippi County School District PK",
    "lat":35.633078,
    "lng":-90.084992
  },
  "0500046": {
    "name":"Manila School District PK",
    "lat":35.807775,
    "lng":-90.204513
  },
  "0500047": {
    "name":"Trumann Schools PK",
    "lat":35.642063,
    "lng":-90.573632
  },
  "0500048": {
    "name":"East Poinsett County School District PK",
    "lat":35.594727,
    "lng":-90.352904
  },
  "0500049": {
    "name":"De Queen School District PK",
    "lat":34.094366,
    "lng":-94.327111
  },
  "0500051": {
    "name":"Palestine-Wheatley School District PK",
    "lat":34.972346,
    "lng":-91.003032
  },
  "0500065": {
    "name":"Lafayette County School District PK",
    "lat":33.369698,
    "lng":-93.609358
  },
  "0500067": {
    "name":"Cleveland County School District PK",
    "lat":33.888767,
    "lng":-92.230868
  },
  "0500068": {
    "name":"Emerson-Taylor School District PK",
    "lat":33.091874,
    "lng":-93.248962
  },
  "0500070": {
    "name":"Cedar Ridge School District PK",
    "lat":35.723502,
    "lng":-91.408158
  },
  "0500071": {
    "name":"Hillcrest School District PK",
    "lat":36.020947,
    "lng":-91.327366
  },
  "0500072": {
    "name":"Deer/Mount Judea School District PK",
    "lat":35.845538,
    "lng":-93.169669
  },
  "0500073": {
    "name":"Ouachita River School District PK",
    "lat":34.593721,
    "lng":-93.783567
  },
  "0500076": {
    "name":"Ozark Mountain School District PK",
    "lat":36.116998,
    "lng":-92.856655
  },
  "0500077": {
    "name":"Twin Rivers School District PK",
    "lat":36.336339,
    "lng":-91.247393
  },
  "0500079": {
    "name":"Two Rivers School District PK",
    "lat":34.919868,
    "lng":-93.391825
  },
  "0502250": {
    "name":"Alma School District PK",
    "lat":35.522971,
    "lng":-94.216053
  },
  "0502280": {
    "name":"Alpena School District PK",
    "lat":36.230993,
    "lng":-93.312258
  },
  "0502330": {
    "name":"Altheimer Unified School District PK",
    "lat":34.34854,
    "lng":-91.872224
  },
  "0502430": {
    "name":"Arkadelphia School District PK",
    "lat":34.098635,
    "lng":-93.108817
  },
  "0502550": {
    "name":"Armorel School District PK",
    "lat":35.921345,
    "lng":-89.743991
  },
  "0502580": {
    "name":"Ashdown School District PK",
    "lat":33.678013,
    "lng":-94.12561
  },
  "0502610": {
    "name":"Atkins Public Schools PK",
    "lat":35.262843,
    "lng":-92.934265
  },
  "0502670": {
    "name":"Augusta School District PK",
    "lat":35.176358,
    "lng":-91.313382
  },
  "0502700": {
    "name":"Bald Knob School District PK",
    "lat":35.312605,
    "lng":-91.524084
  },
  "0502730": {
    "name":"Barton-Lexa School District PK",
    "lat":34.510918,
    "lng":-90.778107
  },
  "0502790": {
    "name":"Bauxite School District PK",
    "lat":34.479933,
    "lng":-92.515423
  },
  "0502820": {
    "name":"Bay School District PK",
    "lat":35.760535,
    "lng":-90.548928
  },
  "0502880": {
    "name":"Beebe School District PK",
    "lat":35.116664,
    "lng":-91.901015
  },
  "0502960": {
    "name":"Benton School District PK",
    "lat":34.559856,
    "lng":-92.698618
  },
  "0503030": {
    "name":"Pea Ridge School District PK",
    "lat":36.466463,
    "lng":-94.073716
  },
  "0503060": {
    "name":"Bentonville Public Schools PK",
    "lat":36.367327,
    "lng":-94.25289
  },
  "0503090": {
    "name":"Bergman School District PK",
    "lat":36.314839,
    "lng":-93.018993
  },
  "0503150": {
    "name":"Berryville Public Schools PK",
    "lat":36.348301,
    "lng":-93.550846
  },
  "0503240": {
    "name":"Bismarck Public Schools PK",
    "lat":34.326891,
    "lng":-93.157302
  },
  "0503270": {
    "name":"Black Rock School District PK",
    "lat":36.08506,
    "lng":-91.128443
  },
  "0503300": {
    "name":"Blevins School District PK",
    "lat":33.855522,
    "lng":-93.581936
  },
  "0503320": {
    "name":"Blytheville School District PK",
    "lat":35.896885,
    "lng":-89.897245
  },
  "0503420": {
    "name":"Lead Hill School District PK",
    "lat":36.426477,
    "lng":-92.952785
  },
  "0503450": {
    "name":"Booneville School District PK",
    "lat":35.102684,
    "lng":-93.946805
  },
  "0503480": {
    "name":"Bradford School District PK",
    "lat":35.466882,
    "lng":-91.46244
  },
  "0503510": {
    "name":"Bradley School District PK",
    "lat":33.11763,
    "lng":-93.650624
  },
  "0503630": {
    "name":"Brinkley School District PK",
    "lat":34.899882,
    "lng":-91.202104
  },
  "0503640": {
    "name":"Brookland School District PK",
    "lat":35.91345,
    "lng":-90.555317
  },
  "0503690": {
    "name":"Bryant Public Schools PK",
    "lat":34.729471,
    "lng":-92.724661
  },
  "0503710": {
    "name":"Buffalo Island Central School District PK",
    "lat":35.911012,
    "lng":-90.299206
  },
  "0503750": {
    "name":"Cabot Public Schools PK",
    "lat":34.970019,
    "lng":-91.96748
  },
  "0503770": {
    "name":"Caddo Hills School District PK",
    "lat":34.434218,
    "lng":-93.701262
  },
  "0503840": {
    "name":"Calico Rock School District PK",
    "lat":36.117669,
    "lng":-92.127229
  },
  "0503960": {
    "name":"Carlisle School District PK",
    "lat":34.703463,
    "lng":-91.750437
  },
  "0504020": {
    "name":"Westside Consolidated School District PK",
    "lat":35.85891,
    "lng":-90.906745
  },
  "0504050": {
    "name":"Cave City School District PK",
    "lat":35.981962,
    "lng":-91.5735
  },
  "0504080": {
    "name":"Cedarville School District PK",
    "lat":35.669492,
    "lng":-94.389561
  },
  "0504110": {
    "name":"Genoa Central School District PK",
    "lat":33.364368,
    "lng":-93.865745
  },
  "0504170": {
    "name":"White County Central School District PK",
    "lat":35.381482,
    "lng":-91.685066
  },
  "0504200": {
    "name":"Charleston School District PK",
    "lat":35.312941,
    "lng":-94.05727
  },
  "0504350": {
    "name":"Clarendon School District PK",
    "lat":34.606315,
    "lng":-91.209666
  },
  "0504370": {
    "name":"Rector School District PK",
    "lat":36.30563,
    "lng":-90.277848
  },
  "0504380": {
    "name":"Clarksville School District PK",
    "lat":35.509167,
    "lng":-93.515619
  },
  "0504410": {
    "name":"Clinton School District PK",
    "lat":35.59331,
    "lng":-92.592021
  },
  "0504560": {
    "name":"Concord Public Schools PK",
    "lat":35.605011,
    "lng":-91.896156
  },
  "0504590": {
    "name":"Conway Public Schools PK",
    "lat":35.069841,
    "lng":-92.429369
  },
  "0504680": {
    "name":"Cotter School District PK",
    "lat":36.305548,
    "lng":-92.503231
  },
  "0504740": {
    "name":"County Line School District PK",
    "lat":35.355978,
    "lng":-93.909615
  },
  "0504800": {
    "name":"Crossett School District PK",
    "lat":33.131499,
    "lng":-92.004761
  },
  "0504860": {
    "name":"Cutter-Morning Star School District PK",
    "lat":34.537433,
    "lng":-92.951471
  },
  "0504890": {
    "name":"Danville School District PK",
    "lat":34.993722,
    "lng":-93.601384
  },
  "0504930": {
    "name":"Dardanelle Public Schools PK",
    "lat":35.194406,
    "lng":-93.199982
  },
  "0504980": {
    "name":"Decatur School District PK",
    "lat":36.342698,
    "lng":-94.468192
  },
  "0505070": {
    "name":"Delight School District PK",
    "lat":34.042922,
    "lng":-93.482097
  },
  "0505170": {
    "name":"Dermott School District PK",
    "lat":33.499806,
    "lng":-91.432935
  },
  "0505190": {
    "name":"Des Arc Public Schools PK",
    "lat":34.971033,
    "lng":-91.554405
  },
  "0505310": {
    "name":"De Valls Bluff Schools PK",
    "lat":34.703759,
    "lng":-91.474039
  },
  "0505340": {
    "name":"Dierks School District PK",
    "lat":34.152371,
    "lng":-93.993465
  },
  "0505410": {
    "name":"Dollarway School District PK",
    "lat":34.299949,
    "lng":-92.159802
  },
  "0505430": {
    "name":"Dover School District PK",
    "lat":35.500134,
    "lng":-93.12981
  },
  "0505470": {
    "name":"Drew Central School District PK",
    "lat":33.588469,
    "lng":-91.767883
  },
  "0505500": {
    "name":"Dumas School District PK",
    "lat":33.916989,
    "lng":-91.518913
  },
  "0505550": {
    "name":"Earle School District PK",
    "lat":35.30233,
    "lng":-90.446129
  },
  "0505580": {
    "name":"East End School District PK",
    "lat":35.008139,
    "lng":-92.639444
  },
  "0505680": {
    "name":"El Dorado School District PK",
    "lat":33.196435,
    "lng":-92.569693
  },
  "0505740": {
    "name":"Elaine School District PK",
    "lat":34.191547,
    "lng":-90.969308
  },
  "0505760": {
    "name":"Elkins School District PK",
    "lat":35.952581,
    "lng":-93.99675
  },
  "0505850": {
    "name":"England School District PK",
    "lat":34.573761,
    "lng":-91.923007
  },
  "0505970": {
    "name":"Eureka Springs School District PK",
    "lat":36.391232,
    "lng":-93.752698
  },
  "0506060": {
    "name":"Camden Fairview School District PK",
    "lat":33.589927,
    "lng":-92.929826
  },
  "0506090": {
    "name":"Farmington School District PK",
    "lat":36.062076,
    "lng":-94.279504
  },
  "0506120": {
    "name":"Fayetteville School District PK",
    "lat":36.081625,
    "lng":-94.102944
  },
  "0506150": {
    "name":"Flippin School District PK",
    "lat":36.275733,
    "lng":-92.576194
  },
  "0506210": {
    "name":"Fordyce School District PK",
    "lat":33.895484,
    "lng":-92.54299
  },
  "0506240": {
    "name":"Foreman School District PK",
    "lat":33.714101,
    "lng":-94.400778
  },
  "0506270": {
    "name":"Forrest City School District PK",
    "lat":35.043562,
    "lng":-90.747013
  },
  "0506330": {
    "name":"Fort Smith Public Schools PK",
    "lat":35.351207,
    "lng":-94.365254
  },
  "0506360": {
    "name":"Fouke School District PK",
    "lat":33.166194,
    "lng":-93.906967
  },
  "0506420": {
    "name":"Fountain Lake School District PK",
    "lat":34.623554,
    "lng":-92.898335
  },
  "0506540": {
    "name":"Gentry Public Schools PK",
    "lat":36.260766,
    "lng":-94.445296
  },
  "0506630": {
    "name":"Glen Rose School District PK",
    "lat":34.43518,
    "lng":-92.705477
  },
  "0506690": {
    "name":"Centerpoint School District PK",
    "lat":34.280571,
    "lng":-93.380278
  },
  "0506840": {
    "name":"Gravette School District PK",
    "lat":36.434171,
    "lng":-94.456366
  },
  "0506870": {
    "name":"Green Forest School District PK",
    "lat":36.360175,
    "lng":-93.410186
  },
  "0506900": {
    "name":"Greenbrier School District PK",
    "lat":35.223655,
    "lng":-92.403131
  },
  "0506930": {
    "name":"Greenland Public Schools PK",
    "lat":35.818284,
    "lng":-94.081739
  },
  "0506990": {
    "name":"Greenwood School District PK",
    "lat":35.216567,
    "lng":-94.228891
  },
  "0507110": {
    "name":"Gurdon School District PK",
    "lat":33.913351,
    "lng":-93.139026
  },
  "0507140": {
    "name":"Guy-Perkins Schools PK",
    "lat":35.32112,
    "lng":-92.337157
  },
  "0507170": {
    "name":"Hackett Public Schools PK",
    "lat":35.189882,
    "lng":-94.400926
  },
  "0507230": {
    "name":"Hampton School District PK",
    "lat":33.507057,
    "lng":-92.513987
  },
  "0507290": {
    "name":"Harmony Grove School District PK",
    "lat":33.840134,
    "lng":-92.817728
  },
  "0507320": {
    "name":"Harmony Grove School District PK",
    "lat":34.509596,
    "lng":-92.645897
  },
  "0507350": {
    "name":"Harrisburg School District PK",
    "lat":35.55314,
    "lng":-90.726047
  },
  "0507380": {
    "name":"Harrison School District PK",
    "lat":36.219913,
    "lng":-93.154597
  },
  "0507410": {
    "name":"Hartford School District PK",
    "lat":35.049161,
    "lng":-94.405488
  },
  "0507530": {
    "name":"Hazen School District PK",
    "lat":34.73742,
    "lng":-91.595033
  },
  "0507560": {
    "name":"Heber Springs School District PK",
    "lat":35.481152,
    "lng":-92.01373
  },
  "0507620": {
    "name":"Hector School District PK",
    "lat":35.611002,
    "lng":-92.910914
  },
  "0507680": {
    "name":"Helena-West Helena School District PK",
    "lat":34.504963,
    "lng":-90.644753
  },
  "0507710": {
    "name":"Hermitage School District PK",
    "lat":33.36893,
    "lng":-92.172562
  },
  "0507740": {
    "name":"Cross County School District PK",
    "lat":35.367758,
    "lng":-90.81635
  },
  "0507770": {
    "name":"Highland School District PK",
    "lat":36.29066,
    "lng":-91.520205
  },
  "0507840": {
    "name":"Hope School District PK",
    "lat":33.64956,
    "lng":-93.623059
  },
  "0507860": {
    "name":"Horatio School District PK",
    "lat":33.891818,
    "lng":-94.341871
  },
  "0507890": {
    "name":"Hot Springs School District PK",
    "lat":34.498728,
    "lng":-93.073291
  },
  "0507920": {
    "name":"Jessieville School District PK",
    "lat":34.711405,
    "lng":-93.174039
  },
  "0507990": {
    "name":"Hoxie School District PK",
    "lat":36.007593,
    "lng":-91.016403
  },
  "0508010": {
    "name":"Hughes School District PK",
    "lat":34.983343,
    "lng":-90.428548
  },
  "0508040": {
    "name":"West Memphis School District PK",
    "lat":35.105241,
    "lng":-90.269805
  },
  "0508130": {
    "name":"Huntsville School District PK",
    "lat":36.007961,
    "lng":-93.749599
  },
  "0508240": {
    "name":"Jasper School District PK",
    "lat":35.885138,
    "lng":-93.442773
  },
  "0508280": {
    "name":"Jonesboro Public Schools PK",
    "lat":35.861583,
    "lng":-90.714485
  },
  "0508340": {
    "name":"Junction City School District PK",
    "lat":33.074424,
    "lng":-92.794668
  },
  "0508400": {
    "name":"Riverview School District PK",
    "lat":35.153926,
    "lng":-91.608483
  },
  "0508490": {
    "name":"Kirby School District PK",
    "lat":34.2614,
    "lng":-93.694214
  },
  "0508610": {
    "name":"Lake Hamilton School District PK",
    "lat":34.485447,
    "lng":-93.256865
  },
  "0508640": {
    "name":"Lakeside School District PK",
    "lat":33.353932,
    "lng":-91.301156
  },
  "0508670": {
    "name":"Lakeside School District PK",
    "lat":34.437772,
    "lng":-93.013516
  },
  "0508700": {
    "name":"Lamar School District PK",
    "lat":35.558612,
    "lng":-93.317242
  },
  "0508730": {
    "name":"Lavaca Public Schools PK",
    "lat":35.359521,
    "lng":-94.167831
  },
  "0508940": {
    "name":"Lincoln School District PK",
    "lat":35.887928,
    "lng":-94.440012
  },
  "0509000": {
    "name":"Little Rock School District PK",
    "lat":34.720512,
    "lng":-92.347409
  },
  "0509030": {
    "name":"Lockesburg School District PK",
    "lat":33.93936,
    "lng":-94.152069
  },
  "0509060": {
    "name":"Lonoke School District PK",
    "lat":34.772339,
    "lng":-91.933836
  },
  "0509150": {
    "name":"Magazine Schools PK",
    "lat":35.173642,
    "lng":-93.763697
  },
  "0509190": {
    "name":"Magnet Cove School District PK",
    "lat":34.470918,
    "lng":-92.840017
  },
  "0509240": {
    "name":"Malvern Special School District PK",
    "lat":34.199658,
    "lng":-92.717645
  },
  "0509270": {
    "name":"Mammoth Spring Schools PK",
    "lat":36.433359,
    "lng":-91.574726
  },
  "0509330": {
    "name":"Mansfield School District PK",
    "lat":35.048756,
    "lng":-94.210154
  },
  "0509360": {
    "name":"Lee County School District PK",
    "lat":34.77975,
    "lng":-90.779288
  },
  "0509390": {
    "name":"Marion School District PK",
    "lat":35.255401,
    "lng":-90.248683
  },
  "0509420": {
    "name":"Marked Tree School District PK",
    "lat":35.506229,
    "lng":-90.467162
  },
  "0509480": {
    "name":"Searcy County School District PK",
    "lat":35.88086,
    "lng":-92.649943
  },
  "0509510": {
    "name":"Marvell School District PK",
    "lat":34.518108,
    "lng":-90.96086
  },
  "0509540": {
    "name":"Mayflower School District PK",
    "lat":34.967609,
    "lng":-92.421077
  },
  "0509570": {
    "name":"Maynard School District PK",
    "lat":36.422097,
    "lng":-90.916867
  },
  "0509600": {
    "name":"McCrory School District PK",
    "lat":35.240634,
    "lng":-91.142724
  },
  "0509630": {
    "name":"McGehee School District PK",
    "lat":33.755825,
    "lng":-91.268932
  },
  "0509720": {
    "name":"Melbourne School District PK",
    "lat":36.011202,
    "lng":-91.891742
  },
  "0509750": {
    "name":"Mena Public Schools PK",
    "lat":34.535821,
    "lng":-94.180663
  },
  "0509780": {
    "name":"Mineral Springs School District PK",
    "lat":33.769569,
    "lng":-93.882898
  },
  "0509840": {
    "name":"Monticello School District PK",
    "lat":33.679809,
    "lng":-91.802939
  },
  "0509990": {
    "name":"Mount Ida School District PK",
    "lat":34.58844,
    "lng":-93.527373
  },
  "0510080": {
    "name":"Mount Vernon-Enola School District PK",
    "lat":35.211507,
    "lng":-92.162364
  },
  "0510170": {
    "name":"Mountain Pine School District PK",
    "lat":34.581106,
    "lng":-93.229537
  },
  "0510200": {
    "name":"Mountain View School District PK",
    "lat":35.840595,
    "lng":-92.167576
  },
  "0510260": {
    "name":"Mountainburg Schools PK",
    "lat":35.692385,
    "lng":-94.137031
  },
  "0510290": {
    "name":"Mulberry School District PK",
    "lat":35.54229,
    "lng":-93.991667
  },
  "0510320": {
    "name":"Murfreesboro School District PK",
    "lat":34.109938,
    "lng":-93.683014
  },
  "0510380": {
    "name":"Nashville School District PK",
    "lat":33.987031,
    "lng":-93.884034
  },
  "0510410": {
    "name":"Nemo Vista School District PK",
    "lat":35.364408,
    "lng":-92.582172
  },
  "0510440": {
    "name":"Nettleton School District PK",
    "lat":35.815383,
    "lng":-90.637616
  },
  "0510560": {
    "name":"Norfork Schools PK",
    "lat":36.170686,
    "lng":-92.292588
  },
  "0510620": {
    "name":"Norphlet School District PK",
    "lat":33.32926,
    "lng":-92.628407
  },
  "0510680": {
    "name":"North Little Rock School District PK",
    "lat":34.780002,
    "lng":-92.252256
  },
  "0510920": {
    "name":"Omaha School District PK",
    "lat":36.439276,
    "lng":-93.177634
  },
  "0510950": {
    "name":"Osceola School District PK",
    "lat":35.663521,
    "lng":-89.960493
  },
  "0510980": {
    "name":"Ouachita School District PK",
    "lat":34.222694,
    "lng":-92.946683
  },
  "0511010": {
    "name":"Ozark School District PK",
    "lat":35.588915,
    "lng":-93.828962
  },
  "0511070": {
    "name":"Pangburn School District PK",
    "lat":35.424265,
    "lng":-91.835661
  },
  "0511130": {
    "name":"Paris School District PK",
    "lat":35.268807,
    "lng":-93.590935
  },
  "0511220": {
    "name":"Parkers Chapel School District PK",
    "lat":33.139677,
    "lng":-92.735544
  },
  "0511340": {
    "name":"Perryville School District PK",
    "lat":34.918978,
    "lng":-93.009744
  },
  "0511370": {
    "name":"Piggott School District PK",
    "lat":36.413757,
    "lng":-90.20553
  },
  "0511610": {
    "name":"Pocahontas School District PK",
    "lat":36.244155,
    "lng":-90.959296
  },
  "0511700": {
    "name":"Pottsville Public Schools PK",
    "lat":35.220123,
    "lng":-93.055023
  },
  "0511730": {
    "name":"Poyen School District PK",
    "lat":34.327121,
    "lng":-92.653608
  },
  "0511760": {
    "name":"Prairie Grove School District PK",
    "lat":35.985818,
    "lng":-94.34261
  },
  "0511820": {
    "name":"Prescott School District PK",
    "lat":33.800295,
    "lng":-93.304639
  },
  "0511850": {
    "name":"Pulaski County Special School District PK",
    "lat":34.623838,
    "lng":-92.18404
  },
  "0511880": {
    "name":"Quitman School District PK",
    "lat":35.384656,
    "lng":-92.211604
  },
  "0511970": {
    "name":"Rogers Public Schools PK",
    "lat":36.340717,
    "lng":-94.01244
  },
  "0512000": {
    "name":"Rose Bud School District PK",
    "lat":35.310804,
    "lng":-92.037124
  },
  "0512060": {
    "name":"Russellville Schools PK",
    "lat":35.308137,
    "lng":-93.166875
  },
  "0512090": {
    "name":"Salem School District PK",
    "lat":36.368182,
    "lng":-91.815412
  },
  "0512180": {
    "name":"Scranton School District PK",
    "lat":35.349265,
    "lng":-93.520994
  },
  "0512210": {
    "name":"Searcy School District PK",
    "lat":35.298133,
    "lng":-91.828155
  },
  "0512420": {
    "name":"Shirley School District PK",
    "lat":35.648379,
    "lng":-92.323146
  },
  "0512450": {
    "name":"Siloam Springs Schools PK",
    "lat":36.142949,
    "lng":-94.469344
  },
  "0512480": {
    "name":"Sloan-Hendrix School District PK",
    "lat":36.197336,
    "lng":-91.190321
  },
  "0512510": {
    "name":"Smackover School District PK",
    "lat":33.312331,
    "lng":-92.83795
  },
  "0512520": {
    "name":"South Conway County School District PK",
    "lat":35.176445,
    "lng":-92.68725
  },
  "0512540": {
    "name":"Southside School District PK",
    "lat":35.686867,
    "lng":-91.596215
  },
  "0512570": {
    "name":"South Side-Bee Branch School District PK",
    "lat":35.438016,
    "lng":-92.372539
  },
  "0512630": {
    "name":"Spring Hill School District PK",
    "lat":33.551058,
    "lng":-93.661669
  },
  "0512660": {
    "name":"Springdale School District PK",
    "lat":36.182451,
    "lng":-94.125573
  },
  "0512870": {
    "name":"Stephens School District PK",
    "lat":33.433298,
    "lng":-93.086314
  },
  "0512930": {
    "name":"Strong School District PK",
    "lat":33.120952,
    "lng":-92.297261
  },
  "0512960": {
    "name":"Stuttgart School District PK",
    "lat":34.460679,
    "lng":-91.49312
  },
  "0513080": {
    "name":"Greene County Technical School District PK",
    "lat":36.028184,
    "lng":-90.717987
  },
  "0513110": {
    "name":"Texarkana School District PK",
    "lat":33.467839,
    "lng":-93.928834
  },
  "0513230": {
    "name":"Jackson County School District PK",
    "lat":35.739588,
    "lng":-91.138417
  },
  "0513260": {
    "name":"Turrell School District PK",
    "lat":35.39186,
    "lng":-90.261387
  },
  "0513350": {
    "name":"Valley Springs School District PK",
    "lat":36.168348,
    "lng":-93.002328
  },
  "0513380": {
    "name":"Valley View School District PK",
    "lat":35.759037,
    "lng":-90.794783
  },
  "0513410": {
    "name":"Van Buren School District PK",
    "lat":35.440754,
    "lng":-94.298873
  },
  "0513440": {
    "name":"Van-Cove School District PK",
    "lat":34.403904,
    "lng":-94.247365
  },
  "0513530": {
    "name":"Vilonia School District PK",
    "lat":35.068128,
    "lng":-92.229753
  },
  "0513560": {
    "name":"Viola School District PK",
    "lat":36.380204,
    "lng":-92.060668
  },
  "0513650": {
    "name":"Waldo School District PK",
    "lat":33.372183,
    "lng":-93.305347
  },
  "0513680": {
    "name":"Waldron School District PK",
    "lat":34.853197,
    "lng":-94.051954
  },
  "0513740": {
    "name":"Walnut Ridge School District PK",
    "lat":36.093098,
    "lng":-90.862102
  },
  "0513930": {
    "name":"Watson Chapel School District PK",
    "lat":34.14592,
    "lng":-92.143965
  },
  "0513950": {
    "name":"Weiner School District PK",
    "lat":35.572167,
    "lng":-90.914208
  },
  "0514010": {
    "name":"West Fork School District PK",
    "lat":35.848624,
    "lng":-94.199032
  },
  "0514020": {
    "name":"Westside School District PK",
    "lat":35.466402,
    "lng":-93.640115
  },
  "0514040": {
    "name":"West Side School District PK",
    "lat":35.603565,
    "lng":-92.142463
  },
  "0514140": {
    "name":"White Hall School District PK",
    "lat":34.361789,
    "lng":-92.133511
  },
  "0514160": {
    "name":"Wickes School District PK",
    "lat":34.274178,
    "lng":-94.21177
  },
  "0514370": {
    "name":"Wonderview School District PK",
    "lat":35.365015,
    "lng":-92.757267
  },
  "0514400": {
    "name":"Woodlawn School District PK",
    "lat":33.873255,
    "lng":-92.032296
  },
  "0514430": {
    "name":"Wynne Public Schools PK",
    "lat":35.236974,
    "lng":-90.749219
  },
  "0514490": {
    "name":"Yellville-Summit School District PK",
    "lat":36.235942,
    "lng":-92.682852
  },
  "0600001": {
    "name":"Acton-Agua Dulce Unified School District KG",
    "lat":34.448514,
    "lng":-118.229202
  },
  "0600009": {
    "name":"Cuyama Joint Unified School District KG",
    "lat":34.833565,
    "lng":-119.61942
  },
  "0600011": {
    "name":"Fort Sage Unified School District KG",
    "lat":39.9745,
    "lng":-120.090101
  },
  "0600013": {
    "name":"Rocklin Unified School District KG",
    "lat":38.808041,
    "lng":-121.250365
  },
  "0600014": {
    "name":"Hesperia Unified School District KG",
    "lat":34.361633,
    "lng":-117.336965
  },
  "0600015": {
    "name":"Lucerne Valley Unified School District KG",
    "lat":34.420236,
    "lng":-116.776979
  },
  "0600016": {
    "name":"Upland Unified School District KG",
    "lat":34.146316,
    "lng":-117.658523
  },
  "0600017": {
    "name":"Apple Valley Unified School District KG",
    "lat":34.474961,
    "lng":-117.139981
  },
  "0600018": {
    "name":"Mountain Valley Unified School District KG",
    "lat":40.541955,
    "lng":-123.242539
  },
  "0600019": {
    "name":"Dublin Unified School District KG",
    "lat":37.715485,
    "lng":-121.910857
  },
  "0600020": {
    "name":"Pleasanton Unified School District KG",
    "lat":37.664974,
    "lng":-121.88671
  },
  "0600021": {
    "name":"Sunol Glen Unified School District KG",
    "lat":37.551134,
    "lng":-121.80546
  },
  "0600022": {
    "name":"Mendota Unified School District KG",
    "lat":36.658178,
    "lng":-120.500682
  },
  "0600025": {
    "name":"Manhattan Beach Unified School District KG",
    "lat":33.897384,
    "lng":-118.419066
  },
  "0600026": {
    "name":"El Tejon Unified School District KG",
    "lat":34.843276,
    "lng":-118.989496
  },
  "0600027": {
    "name":"Lake Elsinore Unified School District KG",
    "lat":33.675585,
    "lng":-117.34846
  },
  "0600028": {
    "name":"Temecula Valley Unified School District KG",
    "lat":33.520387,
    "lng":-117.056407
  },
  "0600029": {
    "name":"Murrieta Valley Unified School District KG",
    "lat":33.530967,
    "lng":-117.297575
  },
  "0600031": {
    "name":"Pacific Unified School District KG",
    "lat":35.959352,
    "lng":-121.461389
  },
  "0600032": {
    "name":"Redondo Beach Unified School District KG",
    "lat":33.849538,
    "lng":-118.400755
  },
  "0600033": {
    "name":"Dos Palos-Oro Loma Joint Unified School District KG",
    "lat":36.842453,
    "lng":-120.690207
  },
  "0600034": {
    "name":"Windsor Unified School District KG",
    "lat":38.548887,
    "lng":-122.796872
  },
  "0600035": {
    "name":"Farmersville Unified School District KG",
    "lat":36.300119,
    "lng":-119.201517
  },
  "0600036": {
    "name":"Natomas Unified School District KG",
    "lat":38.667036,
    "lng":-121.567349
  },
  "0600037": {
    "name":"Ferndale Unified School District KG",
    "lat":40.523168,
    "lng":-124.326632
  },
  "0600038": {
    "name":"Mattole Unified School District KG",
    "lat":40.290863,
    "lng":-124.169631
  },
  "0600039": {
    "name":"Delhi Unified School District KG",
    "lat":37.420277,
    "lng":-120.775633
  },
  "0600040": {
    "name":"Riverdale Joint Unified School District KG",
    "lat":36.40682,
    "lng":-119.919165
  },
  "0600042": {
    "name":"Warner Unified School District KG",
    "lat":33.276507,
    "lng":-116.58194
  },
  "0600043": {
    "name":"Scotts Valley Unified School District KG",
    "lat":37.075947,
    "lng":-122.005319
  },
  "0600044": {
    "name":"Healdsburg Unified School District KG",
    "lat":38.637266,
    "lng":-122.888347
  },
  "0600045": {
    "name":"Orland Joint Unified School District KG",
    "lat":39.784788,
    "lng":-122.733129
  },
  "0600046": {
    "name":"Gonzales Unified School District KG",
    "lat":36.51507,
    "lng":-121.420748
  },
  "0600047": {
    "name":"Tracy Joint Unified School District KG",
    "lat":37.891062,
    "lng":-121.470775
  },
  "0600048": {
    "name":"Paso Robles Joint Unified School District KG",
    "lat":35.657289,
    "lng":-120.715458
  },
  "0600049": {
    "name":"Coast Unified School District KG",
    "lat":35.660324,
    "lng":-121.13323
  },
  "0600051": {
    "name":"Gridley Unified School District KG",
    "lat":39.351754,
    "lng":-121.742708
  },
  "0600052": {
    "name":"Eureka City Unified School District KG",
    "lat":40.796205,
    "lng":-124.149541
  },
  "0600060": {
    "name":"Hughson Unified School District KG",
    "lat":37.587372,
    "lng":-120.849495
  },
  "0600061": {
    "name":"Riverbank Unified School District KG",
    "lat":37.69287,
    "lng":-120.88266
  },
  "0600062": {
    "name":"Oakdale Joint Unified School District KG",
    "lat":37.756017,
    "lng":-120.778112
  },
  "0600063": {
    "name":"Waterford Unified School District KG",
    "lat":37.661867,
    "lng":-120.724381
  },
  "0600064": {
    "name":"Porterville Unified School District KG",
    "lat":36.029545,
    "lng":-118.611521
  },
  "0600065": {
    "name":"Dinuba Unified School District KG",
    "lat":36.517447,
    "lng":-119.392615
  },
  "0600067": {
    "name":"Caruthers Unified School District KG",
    "lat":36.529263,
    "lng":-119.843195
  },
  "0600068": {
    "name":"Golden Valley Unified School District KG",
    "lat":36.92884,
    "lng":-119.84298
  },
  "0600069": {
    "name":"Valley Center-Pauma Unified School District PK",
    "lat":33.277223,
    "lng":-116.939162
  },
  "0600116": {
    "name":"Chawanakee Unified School District KG",
    "lat":37.395685,
    "lng":-119.404482
  },
  "0600153": {
    "name":"Alhambra Unified School District KG",
    "lat":34.074667,
    "lng":-118.137636
  },
  "0600158": {
    "name":"Turlock Unified School District KG",
    "lat":37.488665,
    "lng":-120.827956
  },
  "0600159": {
    "name":"Scott Valley Unified School District KG",
    "lat":41.510419,
    "lng":-122.897037
  },
  "0600160": {
    "name":"Yosemite Unified School District KG",
    "lat":37.230935,
    "lng":-119.744783
  },
  "0601331": {
    "name":"Trinity Alps Unified School District KG",
    "lat":40.861237,
    "lng":-122.937969
  },
  "0601332": {
    "name":"Twin Rivers Unified School District KG",
    "lat":38.673104,
    "lng":-121.384479
  },
  "0601620": {
    "name":"ABC Unified School District KG",
    "lat":33.863771,
    "lng":-118.066546
  },
  "0601770": {
    "name":"Alameda City Unified School District KG",
    "lat":37.764471,
    "lng":-122.283273
  },
  "0601860": {
    "name":"Albany City Unified School District KG",
    "lat":37.888621,
    "lng":-122.325662
  },
  "0602010": {
    "name":"Alpaugh Unified School District KG",
    "lat":35.865723,
    "lng":-119.47839
  },
  "0602070": {
    "name":"Alpine County Unified School District KG",
    "lat":38.61761,
    "lng":-119.798999
  },
  "0602430": {
    "name":"Alvord Unified School District KG",
    "lat":33.90263,
    "lng":-117.484946
  },
  "0602450": {
    "name":"Amador County Unified School District KG",
    "lat":38.44355,
    "lng":-120.653856
  },
  "0602730": {
    "name":"Anderson Valley Unified School District KG",
    "lat":38.991786,
    "lng":-123.361557
  },
  "0602850": {
    "name":"Antioch Unified School District KG",
    "lat":37.978985,
    "lng":-121.806618
  },
  "0602970": {
    "name":"Arcadia Unified School District KG",
    "lat":34.143861,
    "lng":-118.035752
  },
  "0603300": {
    "name":"Atascadero Unified School District KG",
    "lat":35.267906,
    "lng":-120.100654
  },
  "0603600": {
    "name":"Azusa Unified School District KG",
    "lat":34.280333,
    "lng":-117.866141
  },
  "0603610": {
    "name":"Baker Valley Unified School District KG",
    "lat":35.260761,
    "lng":-115.794431
  },
  "0603690": {
    "name":"Baldwin Park Unified School District KG",
    "lat":34.08966,
    "lng":-117.968722
  },
  "0603840": {
    "name":"Banning Unified School District KG",
    "lat":33.907585,
    "lng":-116.764163
  },
  "0604020": {
    "name":"Barstow Unified School District KG",
    "lat":35.058974,
    "lng":-117.187358
  },
  "0604110": {
    "name":"Bassett Unified School District KG",
    "lat":34.051588,
    "lng":-117.986391
  },
  "0604230": {
    "name":"Bear Valley Unified School District KG",
    "lat":34.191076,
    "lng":-116.84233
  },
  "0604290": {
    "name":"Beaumont Unified School District KG",
    "lat":33.947793,
    "lng":-117.025259
  },
  "0604440": {
    "name":"Bellflower Unified School District KG",
    "lat":33.878916,
    "lng":-118.122764
  },
  "0604620": {
    "name":"Benicia Unified School District KG",
    "lat":38.092712,
    "lng":-122.138105
  },
  "0604740": {
    "name":"Berkeley Unified School District KG",
    "lat":37.866702,
    "lng":-122.299066
  },
  "0604830": {
    "name":"Beverly Hills Unified School District KG",
    "lat":34.07923,
    "lng":-118.402437
  },
  "0604950": {
    "name":"Big Pine Unified School District KG",
    "lat":37.050448,
    "lng":-117.683882
  },
  "0605010": {
    "name":"Big Valley Joint Unified School District KG",
    "lat":41.192569,
    "lng":-121.044259
  },
  "0605040": {
    "name":"Biggs Unified School District KG",
    "lat":39.457582,
    "lng":-121.759854
  },
  "0605240": {
    "name":"Black Oak Mine Unified School District KG",
    "lat":38.912766,
    "lng":-120.634853
  },
  "0605610": {
    "name":"Bonita Unified School District KG",
    "lat":34.142721,
    "lng":-117.782875
  },
  "0605700": {
    "name":"Borrego Springs Unified School District KG",
    "lat":33.256052,
    "lng":-116.217249
  },
  "0605880": {
    "name":"Brea-Olinda Unified School District KG",
    "lat":33.924363,
    "lng":-117.843761
  },
  "0606450": {
    "name":"Burbank Unified School District KG",
    "lat":34.188986,
    "lng":-118.324866
  },
  "0606580": {
    "name":"Butte Valley Unified School District KG",
    "lat":41.731224,
    "lng":-121.838927
  },
  "0606780": {
    "name":"Cabrillo Unified School District KG",
    "lat":37.437742,
    "lng":-122.436927
  },
  "0606870": {
    "name":"Calaveras Unified School District KG",
    "lat":38.249621,
    "lng":-120.620577
  },
  "0606900": {
    "name":"Calexico Unified School District KG",
    "lat":32.688294,
    "lng":-115.51801
  },
  "0606990": {
    "name":"Calipatria Unified School District KG",
    "lat":33.28193,
    "lng":-115.560564
  },
  "0607020": {
    "name":"Calistoga Joint Unified School District KG",
    "lat":38.607671,
    "lng":-122.602041
  },
  "0607440": {
    "name":"Capistrano Unified School District KG",
    "lat":33.504856,
    "lng":-117.625562
  },
  "0607500": {
    "name":"Carlsbad Unified School District KG",
    "lat":33.131794,
    "lng":-117.324412
  },
  "0607530": {
    "name":"Carmel Unified School District KG",
    "lat":36.324637,
    "lng":-121.665894
  },
  "0607560": {
    "name":"Carpinteria Unified School District KG",
    "lat":34.410658,
    "lng":-119.527788
  },
  "0607800": {
    "name":"Castro Valley Unified School District KG",
    "lat":37.719815,
    "lng":-122.046341
  },
  "0607900": {
    "name":"Center Joint Unified School District KG",
    "lat":38.741685,
    "lng":-121.403308
  },
  "0607970": {
    "name":"Central Unified School District KG",
    "lat":36.771539,
    "lng":-119.92971
  },
  "0608130": {
    "name":"Ceres Unified School District KG",
    "lat":37.5587,
    "lng":-121.039329
  },
  "0608190": {
    "name":"Charter Oak Unified School District KG",
    "lat":34.100976,
    "lng":-117.854104
  },
  "0608370": {
    "name":"Chico Unified School District KG",
    "lat":39.813844,
    "lng":-121.778787
  },
  "0608460": {
    "name":"Chino Valley Unified School District KG",
    "lat":33.969734,
    "lng":-117.695522
  },
  "0608760": {
    "name":"Claremont Unified School District KG",
    "lat":34.194273,
    "lng":-117.712913
  },
  "0608970": {
    "name":"Cloverdale Unified School District KG",
    "lat":38.788008,
    "lng":-123.029348
  },
  "0609030": {
    "name":"Clovis Unified School District KG",
    "lat":36.879283,
    "lng":-119.624316
  },
  "0609070": {
    "name":"Coachella Valley Unified School District KG",
    "lat":33.558486,
    "lng":-115.841445
  },
  "0609120": {
    "name":"Coalinga-Huron Joint Unified School District KG",
    "lat":36.197231,
    "lng":-120.363591
  },
  "0609390": {
    "name":"Colton Joint Unified School District KG",
    "lat":34.042441,
    "lng":-117.328983
  },
  "0609570": {
    "name":"Colusa Unified School District KG",
    "lat":39.236973,
    "lng":-121.991545
  },
  "0609620": {
    "name":"Compton Unified School District KG",
    "lat":33.891847,
    "lng":-118.23092
  },
  "0609640": {
    "name":"Conejo Valley Unified School District KG",
    "lat":34.177632,
    "lng":-118.884912
  },
  "0609665": {
    "name":"Leggett Valley Unified School District KG",
    "lat":39.855198,
    "lng":-123.807953
  },
  "0609690": {
    "name":"Corcoran Joint Unified School District KG",
    "lat":35.981593,
    "lng":-119.616793
  },
  "0609850": {
    "name":"Corona-Norco Unified School District KG",
    "lat":33.844793,
    "lng":-117.537876
  },
  "0609870": {
    "name":"Coronado Unified School District KG",
    "lat":32.673392,
    "lng":-117.167562
  },
  "0609940": {
    "name":"Cotati-Rohnert Park Unified School District KG",
    "lat":38.339256,
    "lng":-122.70712
  },
  "0610050": {
    "name":"Covina-Valley Unified School District KG",
    "lat":34.080061,
    "lng":-117.887106
  },
  "0610260": {
    "name":"Culver City Unified School District KG",
    "lat":34.003538,
    "lng":-118.394306
  },
  "0610350": {
    "name":"Cutler-Orosi Joint Unified School District KG",
    "lat":36.615495,
    "lng":-118.697481
  },
  "0610620": {
    "name":"Davis Joint Unified School District KG",
    "lat":38.494647,
    "lng":-121.677134
  },
  "0610680": {
    "name":"Death Valley Unified School District KG",
    "lat":36.224569,
    "lng":-116.815471
  },
  "0610770": {
    "name":"Del Norte County Unified School District KG",
    "lat":41.749903,
    "lng":-123.980998
  },
  "0611040": {
    "name":"Denair Unified School District KG",
    "lat":37.546734,
    "lng":-120.707183
  },
  "0611100": {
    "name":"Desert Center Unified School District KG",
    "lat":33.768536,
    "lng":-115.217074
  },
  "0611110": {
    "name":"Desert Sands Unified School District KG",
    "lat":33.819662,
    "lng":-116.112197
  },
  "0611280": {
    "name":"Dixon Unified School District KG",
    "lat":38.407484,
    "lng":-121.799894
  },
  "0611460": {
    "name":"Downey Unified School District KG",
    "lat":33.936159,
    "lng":-118.134706
  },
  "0611520": {
    "name":"Duarte Unified School District KG",
    "lat":34.166524,
    "lng":-117.956246
  },
  "0611730": {
    "name":"Durham Unified School District KG",
    "lat":39.604713,
    "lng":-121.795288
  },
  "0611870": {
    "name":"Eastern Sierra Unified School District KG",
    "lat":37.970612,
    "lng":-118.888953
  },
  "0612180": {
    "name":"El Rancho Unified School District KG",
    "lat":33.987532,
    "lng":-118.092054
  },
  "0612210": {
    "name":"El Segundo Unified School District KG",
    "lat":33.910367,
    "lng":-118.425079
  },
  "0612330": {
    "name":"Elk Grove Unified School District KG",
    "lat":38.439622,
    "lng":-121.273211
  },
  "0612630": {
    "name":"Emery Unified School District KG",
    "lat":37.838875,
    "lng":-122.297856
  },
  "0612840": {
    "name":"Escalon Unified School District KG",
    "lat":37.885535,
    "lng":-121.024149
  },
  "0612930": {
    "name":"Esparto Unified School District KG",
    "lat":38.83447,
    "lng":-122.127165
  },
  "0613360": {
    "name":"Fairfield-Suisun Unified School District KG",
    "lat":38.207303,
    "lng":-122.029667
  },
  "0613470": {
    "name":"Fall River Joint Unified School District KG",
    "lat":40.962921,
    "lng":-121.467425
  },
  "0613800": {
    "name":"Fillmore Unified School District KG",
    "lat":34.532746,
    "lng":-118.926113
  },
  "0613840": {
    "name":"Firebaugh-Las Deltas Joint Unified School District KG",
    "lat":36.854848,
    "lng":-120.436154
  },
  "0613890": {
    "name":"Folsom-Cordova Unified School District KG",
    "lat":38.61748,
    "lng":-121.184599
  },
  "0613920": {
    "name":"Fontana Unified School District KG",
    "lat":34.108118,
    "lng":-117.45816
  },
  "0614070": {
    "name":"Fort Bragg Unified School District KG",
    "lat":39.530724,
    "lng":-123.683007
  },
  "0614250": {
    "name":"Fowler Unified School District KG",
    "lat":36.638976,
    "lng":-119.68648
  },
  "0614400": {
    "name":"Fremont Unified School District KG",
    "lat":37.494373,
    "lng":-121.941117
  },
  "0614550": {
    "name":"Fresno Unified School District KG",
    "lat":36.774538,
    "lng":-119.782665
  },
  "0614880": {
    "name":"Garden Grove Unified School District KG",
    "lat":33.766442,
    "lng":-117.956483
  },
  "0614950": {
    "name":"Gateway Unified School District KG",
    "lat":40.895435,
    "lng":-122.286803
  },
  "0615150": {
    "name":"Geyserville Unified School District KG",
    "lat":38.719408,
    "lng":-122.977164
  },
  "0615180": {
    "name":"Gilroy Unified School District KG",
    "lat":37.043831,
    "lng":-121.50187
  },
  "0615240": {
    "name":"Glendale Unified School District KG",
    "lat":34.203681,
    "lng":-118.251931
  },
  "0615270": {
    "name":"Glendora Unified School District KG",
    "lat":34.163315,
    "lng":-117.84305
  },
  "0616323": {
    "name":"Gustine Unified School District KG",
    "lat":37.195041,
    "lng":-121.021668
  },
  "0616325": {
    "name":"Hacienda La Puente Unified School District KG",
    "lat":34.013225,
    "lng":-117.964388
  },
  "0616740": {
    "name":"Hayward Unified School District KG",
    "lat":37.637458,
    "lng":-122.102113
  },
  "0616920": {
    "name":"Hemet Unified School District KG",
    "lat":33.605574,
    "lng":-116.781865
  },
  "0617220": {
    "name":"Hilmar Unified School District KG",
    "lat":37.345656,
    "lng":-120.863543
  },
  "0617430": {
    "name":"Holtville Unified School District KG",
    "lat":32.811001,
    "lng":-115.152865
  },
  "0618210": {
    "name":"Imperial Unified School District KG",
    "lat":32.810304,
    "lng":-115.825516
  },
  "0618390": {
    "name":"Inglewood Unified School District KG",
    "lat":33.96121,
    "lng":-118.345897
  },
  "0618990": {
    "name":"John Swett Unified School District KG",
    "lat":38.032086,
    "lng":-122.223442
  },
  "0619260": {
    "name":"Jurupa Unified School District KG",
    "lat":34.002259,
    "lng":-117.473331
  },
  "0619320": {
    "name":"Kelseyville Unified School District KG",
    "lat":38.922131,
    "lng":-122.789559
  },
  "0619490": {
    "name":"Kerman Unified School District KG",
    "lat":36.723813,
    "lng":-120.091978
  },
  "0619700": {
    "name":"Kings Canyon Joint Unified School District KG",
    "lat":36.738493,
    "lng":-119.039869
  },
  "0619950": {
    "name":"Klamath-Trinity Joint Unified School District KG",
    "lat":41.148312,
    "lng":-123.690917
  },
  "0620070": {
    "name":"Konocti Unified School District KG",
    "lat":38.977776,
    "lng":-122.557972
  },
  "0620130": {
    "name":"La Caada Unified School District KG",
    "lat":34.346517,
    "lng":-118.079416
  },
  "0620220": {
    "name":"La Honda-Pescadero Unified School District KG",
    "lat":37.22565,
    "lng":-122.297533
  },
  "0620370": {
    "name":"Laguna Beach Unified School District KG",
    "lat":33.545618,
    "lng":-117.799425
  },
  "0620640": {
    "name":"Lake Tahoe Unified School District KG",
    "lat":38.866416,
    "lng":-120.028405
  },
  "0620670": {
    "name":"Lakeport Unified School District KG",
    "lat":39.057324,
    "lng":-122.968509
  },
  "0621000": {
    "name":"Las Virgenes Unified School District KG",
    "lat":34.121122,
    "lng":-118.739171
  },
  "0621150": {
    "name":"Laton Joint Unified School District KG",
    "lat":36.459564,
    "lng":-119.721774
  },
  "0621690": {
    "name":"Lincoln Unified School District KG",
    "lat":37.998377,
    "lng":-121.358693
  },
  "0621810": {
    "name":"Linden Unified School District KG",
    "lat":38.048697,
    "lng":-121.075254
  },
  "0621870": {
    "name":"Lindsay Unified School District KG",
    "lat":36.208206,
    "lng":-119.091832
  },
  "0622050": {
    "name":"Live Oak Unified School District KG",
    "lat":39.258746,
    "lng":-121.77697
  },
  "0622110": {
    "name":"Livermore Valley Joint Unified School District KG",
    "lat":37.639693,
    "lng":-121.663359
  },
  "0622230": {
    "name":"Lodi Unified School District KG",
    "lat":38.120549,
    "lng":-121.299515
  },
  "0622410": {
    "name":"Lompoc Unified School District KG",
    "lat":34.07767,
    "lng":-119.916239
  },
  "0622440": {
    "name":"Lone Pine Unified School District KG",
    "lat":36.292732,
    "lng":-117.865386
  },
  "0622500": {
    "name":"Long Beach Unified School District KG",
    "lat":33.367642,
    "lng":-118.481043
  },
  "0622590": {
    "name":"Los Alamitos Unified School District KG",
    "lat":33.768527,
    "lng":-118.070572
  },
  "0622710": {
    "name":"Los Angeles Unified School District KG",
    "lat":33.952364,
    "lng":-118.276058
  },
  "0622740": {
    "name":"Los Banos Unified School District KG",
    "lat":37.013556,
    "lng":-120.947491
  },
  "0622860": {
    "name":"Los Molinos Unified School District KG",
    "lat":39.980635,
    "lng":-121.891814
  },
  "0623080": {
    "name":"Lucia Mar Unified School District KG",
    "lat":35.103777,
    "lng":-120.429704
  },
  "0623160": {
    "name":"Lynwood Unified School District KG",
    "lat":33.923622,
    "lng":-118.20013
  },
  "0623340": {
    "name":"Madera Unified School District KG",
    "lat":36.941917,
    "lng":-120.123863
  },
  "0623530": {
    "name":"Mammoth Unified School District KG",
    "lat":37.641155,
    "lng":-118.825217
  },
  "0623610": {
    "name":"Manteca Unified School District KG",
    "lat":37.808287,
    "lng":-121.241667
  },
  "0623820": {
    "name":"Maricopa Unified School District KG",
    "lat":34.989053,
    "lng":-119.260593
  },
  "0623940": {
    "name":"Mariposa County Unified School District KG",
    "lat":37.570033,
    "lng":-119.91286
  },
  "0624030": {
    "name":"Martinez Unified School District KG",
    "lat":37.977678,
    "lng":-122.149713
  },
  "0624090": {
    "name":"Marysville Joint Unified School District KG",
    "lat":39.327899,
    "lng":-121.354326
  },
  "0624150": {
    "name":"Maxwell Unified School District KG",
    "lat":39.288133,
    "lng":-122.415572
  },
  "0624230": {
    "name":"McFarland Unified School District KG",
    "lat":35.623105,
    "lng":-119.127787
  },
  "0624480": {
    "name":"Mendocino Unified School District KG",
    "lat":39.247779,
    "lng":-123.626148
  },
  "0624500": {
    "name":"Milpitas Unified School District KG",
    "lat":37.436451,
    "lng":-121.715654
  },
  "0624750": {
    "name":"Middletown Unified School District KG",
    "lat":38.773791,
    "lng":-122.607165
  },
  "0625190": {
    "name":"Modoc Joint Unified School District KG",
    "lat":41.563768,
    "lng":-120.619828
  },
  "0625230": {
    "name":"Mojave Unified School District KG",
    "lat":35.192553,
    "lng":-118.031711
  },
  "0625320": {
    "name":"Monrovia Unified School District KG",
    "lat":34.16656,
    "lng":-118.003172
  },
  "0625470": {
    "name":"Montebello Unified School District KG",
    "lat":34.006545,
    "lng":-118.129526
  },
  "0625530": {
    "name":"Monterey Peninsula Unified School District KG",
    "lat":36.613725,
    "lng":-121.809593
  },
  "0625690": {
    "name":"Moorpark Unified School District KG",
    "lat":34.31094,
    "lng":-118.876067
  },
  "0625800": {
    "name":"Moreno Valley Unified School District KG",
    "lat":33.933674,
    "lng":-117.215658
  },
  "0625830": {
    "name":"Morgan Hill Unified School District KG",
    "lat":37.176017,
    "lng":-121.621042
  },
  "0625860": {
    "name":"Morongo Unified School District KG",
    "lat":34.213984,
    "lng":-116.180814
  },
  "0626100": {
    "name":"Mountain Empire Unified School District KG",
    "lat":32.750333,
    "lng":-116.39144
  },
  "0626370": {
    "name":"Mount Diablo Unified School District KG",
    "lat":37.959983,
    "lng":-121.982599
  },
  "0626490": {
    "name":"Muroc Joint Unified School District KG",
    "lat":34.93412,
    "lng":-117.71279
  },
  "0626640": {
    "name":"Napa Valley Unified School District KG",
    "lat":38.338187,
    "lng":-122.276301
  },
  "0626760": {
    "name":"Needles Unified School District KG",
    "lat":34.491091,
    "lng":-115.109654
  },
  "0626910": {
    "name":"New Haven Unified School District KG",
    "lat":37.594274,
    "lng":-122.060122
  },
  "0627060": {
    "name":"Newark Unified School District KG",
    "lat":37.504141,
    "lng":-122.032359
  },
  "0627200": {
    "name":"Newman-Crows Landing Unified School District KG",
    "lat":37.325955,
    "lng":-121.193383
  },
  "0627240": {
    "name":"Newport-Mesa Unified School District KG",
    "lat":33.607612,
    "lng":-117.897005
  },
  "0627590": {
    "name":"North Monterey County Unified School District KG",
    "lat":36.77982,
    "lng":-121.727673
  },
  "0627690": {
    "name":"Norwalk-La Mirada Unified School District KG",
    "lat":33.904113,
    "lng":-118.044346
  },
  "0627720": {
    "name":"Novato Unified School District KG",
    "lat":38.098231,
    "lng":-122.540288
  },
  "0627850": {
    "name":"Oak Park Unified School District KG",
    "lat":34.196085,
    "lng":-118.72464
  },
  "0628050": {
    "name":"Oakland Unified School District KG",
    "lat":37.769857,
    "lng":-122.22564
  },
  "0628250": {
    "name":"Oceanside Unified School District KG",
    "lat":33.23503,
    "lng":-117.381971
  },
  "0628270": {
    "name":"Ojai Unified School District KG",
    "lat":34.494197,
    "lng":-119.222407
  },
  "0628650": {
    "name":"Orange Unified School District KG",
    "lat":33.782819,
    "lng":-117.697542
  },
  "0629190": {
    "name":"Owens Valley Unified School District KG",
    "lat":36.816805,
    "lng":-117.623778
  },
  "0629370": {
    "name":"Pacific Grove Unified School District KG",
    "lat":36.610823,
    "lng":-121.932831
  },
  "0629490": {
    "name":"Pajaro Valley Joint Unified School District KG",
    "lat":36.935076,
    "lng":-121.790231
  },
  "0629550": {
    "name":"Palm Springs Unified School District KG",
    "lat":33.806858,
    "lng":-116.468436
  },
  "0629610": {
    "name":"Palo Alto Unified School District KG",
    "lat":37.409518,
    "lng":-122.149375
  },
  "0629640": {
    "name":"Palo Verde Unified School District KG",
    "lat":33.772194,
    "lng":-114.719093
  },
  "0629700": {
    "name":"Palos Verdes Peninsula Unified School District KG",
    "lat":33.754073,
    "lng":-118.400971
  },
  "0629820": {
    "name":"Paradise Unified School District KG",
    "lat":39.965685,
    "lng":-121.533711
  },
  "0629850": {
    "name":"Paramount Unified School District KG",
    "lat":33.892015,
    "lng":-118.161098
  },
  "0629910": {
    "name":"Parlier Unified School District KG",
    "lat":36.61832,
    "lng":-119.528354
  },
  "0629940": {
    "name":"Pasadena Unified School District KG",
    "lat":34.196246,
    "lng":-118.09459
  },
  "0630030": {
    "name":"Patterson Joint Unified School District KG",
    "lat":37.468001,
    "lng":-121.390707
  },
  "0630330": {
    "name":"Piedmont City Unified School District KG",
    "lat":37.822558,
    "lng":-122.230094
  },
  "0630360": {
    "name":"Pierce Joint Unified School District KG",
    "lat":38.981747,
    "lng":-122.047602
  },
  "0630600": {
    "name":"Pittsburg Unified School District KG",
    "lat":38.002788,
    "lng":-121.88937
  },
  "0630660": {
    "name":"Placentia-Yorba Linda Unified School District KG",
    "lat":33.885519,
    "lng":-117.800693
  },
  "0631170": {
    "name":"Plumas Unified School District KG",
    "lat":40.014208,
    "lng":-120.939524
  },
  "0631320": {
    "name":"Pomona Unified School District KG",
    "lat":34.047683,
    "lng":-117.776878
  },
  "0631400": {
    "name":"Potter Valley Community Unified School District KG",
    "lat":39.34439,
    "lng":-123.10986
  },
  "0631530": {
    "name":"Poway Unified School District KG",
    "lat":32.982282,
    "lng":-117.059698
  },
  "0631620": {
    "name":"Princeton Joint Unified School District KG",
    "lat":39.443813,
    "lng":-122.006234
  },
  "0631710": {
    "name":"Ramona City Unified School District KG",
    "lat":33.031416,
    "lng":-116.835839
  },
  "0632070": {
    "name":"Redlands Unified School District KG",
    "lat":34.083016,
    "lng":-117.073317
  },
  "0632270": {
    "name":"Reef-Sunset Unified School District KG",
    "lat":35.94046,
    "lng":-119.991146
  },
  "0632370": {
    "name":"Rialto Unified School District KG",
    "lat":34.124094,
    "lng":-117.383827
  },
  "0632550": {
    "name":"West Contra Costa Unified School District KG",
    "lat":37.973028,
    "lng":-122.331004
  },
  "0632610": {
    "name":"Rim of the World Unified School District KG",
    "lat":34.240396,
    "lng":-117.141951
  },
  "0632880": {
    "name":"Ripon Unified School District KG",
    "lat":37.7789,
    "lng":-121.13419
  },
  "0633110": {
    "name":"River Delta Joint Unified School District KG",
    "lat":38.215053,
    "lng":-121.675798
  },
  "0633150": {
    "name":"Riverside Unified School District KG",
    "lat":33.923313,
    "lng":-117.377838
  },
  "0633720": {
    "name":"Round Valley Unified School District KG",
    "lat":39.775388,
    "lng":-123.144385
  },
  "0633750": {
    "name":"Rowland Unified School District KG",
    "lat":33.991178,
    "lng":-117.891402
  },
  "0633840": {
    "name":"Sacramento City Unified School District KG",
    "lat":38.526611,
    "lng":-121.454419
  },
  "0633860": {
    "name":"Saddleback Valley Unified School District KG",
    "lat":33.646302,
    "lng":-117.583955
  },
  "0634170": {
    "name":"San Bernardino City Unified School District KG",
    "lat":34.196141,
    "lng":-117.3383
  },
  "0634320": {
    "name":"San Diego City Unified School District KG",
    "lat":32.773504,
    "lng":-117.188141
  },
  "0634410": {
    "name":"San Francisco Unified School District KG",
    "lat":37.727239,
    "lng":-123.032229
  },
  "0634425": {
    "name":"San Gabriel Unified School District KG",
    "lat":34.100207,
    "lng":-118.095181
  },
  "0634440": {
    "name":"San Jacinto Unified School District KG",
    "lat":33.83672,
    "lng":-116.997325
  },
  "0634590": {
    "name":"San Jose Unified School District KG",
    "lat":37.269795,
    "lng":-121.873953
  },
  "0634620": {
    "name":"San Juan Unified School District KG",
    "lat":38.647441,
    "lng":-121.306336
  },
  "0634680": {
    "name":"San Leandro Unified School District KG",
    "lat":37.706917,
    "lng":-122.16597
  },
  "0634710": {
    "name":"San Lorenzo Unified School District KG",
    "lat":37.667113,
    "lng":-122.148586
  },
  "0634740": {
    "name":"San Lorenzo Valley Unified School District KG",
    "lat":37.141074,
    "lng":-122.115288
  },
  "0634800": {
    "name":"San Luis Coastal Unified School District KG",
    "lat":35.264651,
    "lng":-120.769521
  },
  "0634860": {
    "name":"San Marino Unified School District KG",
    "lat":34.123198,
    "lng":-118.11026
  },
  "0634880": {
    "name":"San Marcos Unified School District KG",
    "lat":33.143099,
    "lng":-117.17833
  },
  "0635070": {
    "name":"San Pasqual Valley Unified School District KG",
    "lat":33.056998,
    "lng":-114.863217
  },
  "0635130": {
    "name":"San Ramon Valley Unified School District KG",
    "lat":37.804669,
    "lng":-121.93653
  },
  "0635250": {
    "name":"Sanger Unified School District KG",
    "lat":36.759724,
    "lng":-119.515934
  },
  "0635310": {
    "name":"Santa Ana Unified School District KG",
    "lat":33.721148,
    "lng":-117.875452
  },
  "0635430": {
    "name":"Santa Clara Unified School District KG",
    "lat":37.401688,
    "lng":-121.973393
  },
  "0635700": {
    "name":"Santa Monica-Malibu Unified School District KG",
    "lat":34.032741,
    "lng":-118.729311
  },
  "0636270": {
    "name":"Selma Unified School District KG",
    "lat":36.563458,
    "lng":-119.625586
  },
  "0636450": {
    "name":"Shandon Joint Unified School District KG",
    "lat":35.665472,
    "lng":-120.33479
  },
  "0636670": {
    "name":"Shoreline Unified School District KG",
    "lat":38.185519,
    "lng":-122.948373
  },
  "0636780": {
    "name":"Sierra-Plumas Joint Unified School District KG",
    "lat":39.623193,
    "lng":-120.310123
  },
  "0636800": {
    "name":"Sierra Sands Unified School District KG",
    "lat":35.55541,
    "lng":-117.779413
  },
  "0636805": {
    "name":"Sierra Unified School District KG",
    "lat":36.957373,
    "lng":-119.007414
  },
  "0636820": {
    "name":"Silver Valley Unified School District KG",
    "lat":35.092953,
    "lng":-116.61573
  },
  "0636840": {
    "name":"Simi Valley Unified School District KG",
    "lat":34.28788,
    "lng":-118.732027
  },
  "0636970": {
    "name":"Snowline Joint Unified School District KG",
    "lat":34.402869,
    "lng":-117.58472
  },
  "0637050": {
    "name":"Soledad Unified School District KG",
    "lat":36.386077,
    "lng":-121.324027
  },
  "0637200": {
    "name":"Sonoma Valley Unified School District KG",
    "lat":38.289842,
    "lng":-122.472571
  },
  "0637500": {
    "name":"South Pasadena Unified School District KG",
    "lat":34.108957,
    "lng":-118.156615
  },
  "0637530": {
    "name":"South San Francisco Unified School District KG",
    "lat":37.655104,
    "lng":-122.376234
  },
  "0637590": {
    "name":"Southern Humboldt Joint Unified School District KG",
    "lat":40.168801,
    "lng":-123.826148
  },
  "0637620": {
    "name":"Southern Kern Unified School District KG",
    "lat":34.888632,
    "lng":-118.339741
  },
  "0637630": {
    "name":"Southern Trinity Joint Unified School District KG",
    "lat":40.069602,
    "lng":-123.210947
  },
  "0637830": {
    "name":"St. Helena Unified School District KG",
    "lat":38.493757,
    "lng":-122.439825
  },
  "0638010": {
    "name":"Stockton Unified School District KG",
    "lat":37.956599,
    "lng":-121.268642
  },
  "0638070": {
    "name":"Stony Creek Joint Unified School District KG",
    "lat":39.571983,
    "lng":-122.580828
  },
  "0638520": {
    "name":"Surprise Valley Joint Unified School District KG",
    "lat":41.490004,
    "lng":-120.137493
  },
  "0638770": {
    "name":"Tahoe-Truckee Joint Unified School District KG",
    "lat":39.279473,
    "lng":-120.246372
  },
  "0638880": {
    "name":"Tehachapi Unified School District KG",
    "lat":35.122434,
    "lng":-118.491572
  },
  "0638980": {
    "name":"Temple City Unified School District KG",
    "lat":34.108048,
    "lng":-118.065146
  },
  "0639000": {
    "name":"Templeton Unified School District KG",
    "lat":35.553519,
    "lng":-120.769606
  },
  "0639420": {
    "name":"Torrance Unified School District KG",
    "lat":33.830961,
    "lng":-118.356763
  },
  "0639630": {
    "name":"Travis Unified School District KG",
    "lat":38.282221,
    "lng":-121.924715
  },
  "0639840": {
    "name":"Trona Joint Unified School District KG",
    "lat":35.651272,
    "lng":-117.198223
  },
  "0639940": {
    "name":"Tulelake Basin Joint Unified School District KG",
    "lat":41.767301,
    "lng":-121.338836
  },
  "0640150": {
    "name":"Tustin Unified School District KG",
    "lat":33.743424,
    "lng":-117.798688
  },
  "0640300": {
    "name":"Ukiah Unified School District KG",
    "lat":39.104485,
    "lng":-123.191232
  },
  "0640590": {
    "name":"Vacaville Unified School District KG",
    "lat":38.382566,
    "lng":-121.986979
  },
  "0640740": {
    "name":"Vallejo City Unified School District KG",
    "lat":38.11326,
    "lng":-122.281584
  },
  "0640980": {
    "name":"Ventura Unified School District KG",
    "lat":34.295676,
    "lng":-119.325872
  },
  "0641160": {
    "name":"Visalia Unified School District KG",
    "lat":36.36852,
    "lng":-119.315086
  },
  "0641190": {
    "name":"Vista Unified School District KG",
    "lat":33.202822,
    "lng":-117.23959
  },
  "0641280": {
    "name":"Walnut Valley Unified School District KG",
    "lat":33.999312,
    "lng":-117.826986
  },
  "0641580": {
    "name":"Washington Unified School District KG",
    "lat":38.559252,
    "lng":-121.561306
  },
  "0642000": {
    "name":"West Covina Unified School District KG",
    "lat":34.060559,
    "lng":-117.924963
  },
  "0642140": {
    "name":"Western Placer Unified School District KG",
    "lat":38.936145,
    "lng":-121.303289
  },
  "0642300": {
    "name":"Westwood Unified School District KG",
    "lat":40.518769,
    "lng":-121.103782
  },
  "0642540": {
    "name":"Williams Unified School District KG",
    "lat":39.13466,
    "lng":-122.261692
  },
  "0642560": {
    "name":"Willits Unified School District KG",
    "lat":39.47451,
    "lng":-123.358304
  },
  "0642580": {
    "name":"Laytonville Unified School District KG",
    "lat":39.764718,
    "lng":-123.533064
  },
  "0642710": {
    "name":"Willows Unified School District KG",
    "lat":39.516611,
    "lng":-122.220967
  },
  "0642930": {
    "name":"Winters Joint Unified School District KG",
    "lat":38.568491,
    "lng":-122.08021
  },
  "0643080": {
    "name":"Woodland Joint Unified School District KG",
    "lat":38.72024,
    "lng":-121.771087
  },
  "0643470": {
    "name":"Yuba City Unified School District KG",
    "lat":39.034225,
    "lng":-121.663313
  },
  "0643560": {
    "name":"Yucaipa-Calimesa Joint Unified School District KG",
    "lat":34.051251,
    "lng":-117.013195
  },
  "0684500": {
    "name":"Irvine Unified School District KG",
    "lat":33.678399,
    "lng":-117.771254
  },
  "0691134": {
    "name":"Golden Plains Unified School District KG",
    "lat":36.555766,
    "lng":-120.257248
  },
  "0691135": {
    "name":"Val Verde Unified School District KG",
    "lat":33.843139,
    "lng":-117.258859
  },
  "0691136": {
    "name":"Aromas-San Juan Unified School District KG",
    "lat":36.851298,
    "lng":-121.521308
  },
  "0691137": {
    "name":"Big Oak Flat-Groveland Unified School District KG",
    "lat":37.850276,
    "lng":-119.787404
  },
  "0699997": {
    "name":"School District Not Defined PK",
    "lat":37.074659,
    "lng":-121.260791
  },
  "0699998": {
    "name":"School District Not Defined (Water) PK",
    "lat":40.438566,
    "lng":-124.413693
  },
  "0800001": {
    "name":"Cheyenne County School District RE-5 PK",
    "lat":38.837224,
    "lng":-102.325092
  },
  "0800016": {
    "name":"Yuma School District",
    "lat":40.124635,
    "lng":-102.633346
  },
  "0800017": {
    "name":"Wray School District RD-2 PK",
    "lat":40.119739,
    "lng":-102.236356
  },
  "0800018": {
    "name":"Idalia School District RJ-3 PK",
    "lat":39.709824,
    "lng":-102.273164
  },
  "0800019": {
    "name":"Liberty School District J-4 PK",
    "lat":39.677344,
    "lng":-102.622463
  },
  "0801920": {
    "name":"Academy School District",
    "lat":38.992021,
    "lng":-104.789256
  },
  "0801950": {
    "name":"Adams County School District",
    "lat":39.836175,
    "lng":-104.874933
  },
  "0801980": {
    "name":"Agate School District",
    "lat":39.36503,
    "lng":-104.01917
  },
  "0802010": {
    "name":"Aguilar Reorganized School District",
    "lat":37.548854,
    "lng":-104.49102
  },
  "0802040": {
    "name":"Akron School District R-1 PK",
    "lat":40.141321,
    "lng":-103.254831
  },
  "0802070": {
    "name":"Alamosa School District RE-11J PK",
    "lat":37.469233,
    "lng":-105.828781
  },
  "0802130": {
    "name":"South Conejos School District RE-10 PK",
    "lat":37.087841,
    "lng":-106.199541
  },
  "0802190": {
    "name":"Archuleta County School District 50-JT KG",
    "lat":37.264141,
    "lng":-107.079378
  },
  "0802220": {
    "name":"Arickaree School District R-2 PK",
    "lat":39.746917,
    "lng":-103.032225
  },
  "0802260": {
    "name":"Arriba-Flagler School District C-20 PK",
    "lat":39.328135,
    "lng":-103.163508
  },
  "0802280": {
    "name":"Aspen School District",
    "lat":39.160355,
    "lng":-106.687538
  },
  "0802310": {
    "name":"Ault-Highland School District RE-9 KG",
    "lat":40.787793,
    "lng":-104.774929
  },
  "0802340": {
    "name":"Adams-Arapahoe School District 28J PK",
    "lat":39.715737,
    "lng":-104.729838
  },
  "0802370": {
    "name":"Platte Canyon School District",
    "lat":39.498456,
    "lng":-105.650631
  },
  "0802400": {
    "name":"Bayfield School District R-10-JT PK",
    "lat":37.499233,
    "lng":-107.576909
  },
  "0802430": {
    "name":"Bennett School District 29-J PK",
    "lat":39.745441,
    "lng":-104.496378
  },
  "0802460": {
    "name":"Bethune School District R-5 PK",
    "lat":39.297371,
    "lng":-102.396751
  },
  "0802490": {
    "name":"Boulder Valley School District RE-2 PK",
    "lat":39.99741,
    "lng":-105.40092
  },
  "0802520": {
    "name":"Branson Reorganized School District",
    "lat":37.168786,
    "lng":-103.848809
  },
  "0802550": {
    "name":"Briggsdale School District RE-10 KG",
    "lat":40.624982,
    "lng":-104.287097
  },
  "0802580": {
    "name":"Brighton School District 27J PK",
    "lat":39.937937,
    "lng":-104.713242
  },
  "0802610": {
    "name":"Brush School District RE-2J PK",
    "lat":40.252927,
    "lng":-103.566788
  },
  "0802640": {
    "name":"Buena Vista School District R-31 PK",
    "lat":38.836894,
    "lng":-106.296131
  },
  "0802670": {
    "name":"Burlington School District RE-6J PK",
    "lat":39.321667,
    "lng":-102.223231
  },
  "0802700": {
    "name":"Byers School District 32J PK",
    "lat":39.841244,
    "lng":-104.012663
  },
  "0802730": {
    "name":"Calhan School District RJ-1 PK",
    "lat":39.066874,
    "lng":-104.279114
  },
  "0802760": {
    "name":"Campo School District RE-6 PK",
    "lat":37.061505,
    "lng":-102.588684
  },
  "0802790": {
    "name":"Caon City School District RE-1 KG",
    "lat":38.527588,
    "lng":-105.299014
  },
  "0802850": {
    "name":"Center School District 26-JT PK",
    "lat":37.828304,
    "lng":-106.197947
  },